{"type":"FeatureCollection","features":[{"type":"Feature","id":"way/1039428089","geometry":{"type":"Polygon","coordinates":[[[6.07603,51.9284599],[6.0759839,51.9284654],[6.0759981,51.928512],[6.0760154,51.9285599],[6.0760354,51.9286073],[6.0760581,51.9286543],[6.0760875,51.9287078],[6.0761093,51.9287224],[6.07603,51.9284599]]]},"properties":{"source":"osm","query_name":"02-roads-paths","osm_type":"way","osm_id":1039428089,"category":"road","subtype":"pedestrian","name":"Raadhuisplein","is_bridge":false,"display_class":"road_pedestrian","source_url":"https://www.openstreetmap.org/way/1039428089","riverbank_distance_m":null}},{"type":"Feature","id":"way/1259645054","geometry":{"type":"Polygon","coordinates":[[[5.9575406,52.2153316],[5.9574227,52.2154491],[5.9574091,52.2154693],[5.9571587,52.2153742],[5.9573702,52.2151642],[5.9574086,52.2151789],[5.9576713,52.215293],[5.9576534,52.2153362],[5.9578288,52.2154033],[5.9579628,52.2154313],[5.9582641,52.2154957],[5.9585768,52.2155871],[5.9588455,52.215669],[5.9588393,52.2156867],[5.9588319,52.2157081],[5.9580672,52.2155333],[5.9576013,52.2153553],[5.9575406,52.2153316]]]},"properties":{"source":"osm","query_name":"02-roads-paths","osm_type":"way","osm_id":1259645054,"category":"road","subtype":"pedestrian","name":"Van Reekumplein","is_bridge":false,"display_class":"road_pedestrian","source_url":"https://www.openstreetmap.org/way/1259645054","riverbank_distance_m":null}},{"type":"Feature","id":"way/747731398","geometry":{"type":"Polygon","coordinates":[[[6.9295251,52.3138064],[6.9290568,52.3138726],[6.929023,52.3138687],[6.9289983,52.3138458],[6.9288561,52.313473],[6.9287879,52.3132998],[6.9291527,52.313366],[6.9294961,52.3133277],[6.9294114,52.3135675],[6.9294253,52.3136354],[6.9295251,52.3138064]]]},"properties":{"source":"osm","query_name":"02-roads-paths","osm_type":"way","osm_id":747731398,"category":"road","subtype":"pedestrian","name":"Groote Markt","is_bridge":false,"display_class":"road_pedestrian","source_url":"https://www.openstreetmap.org/way/747731398","riverbank_distance_m":null}},{"type":"Feature","id":"node/6417427698","geometry":{"type":"Point","coordinates":[6.5178963,51.9929963]},"properties":{"source":"osm","query_name":"04-places-heritage","osm_type":"node","osm_id":6417427698,"category":"heritage","subtype":"droebel","name":"Droebel 't Donderwinkel","is_bridge":false,"display_class":"heritage","source_url":"https://www.openstreetmap.org/node/6417427698","riverbank_distance_m":null}},{"type":"Feature","id":"node/6417427699","geometry":{"type":"Point","coordinates":[6.5443483,52.0059347]},"properties":{"source":"osm","query_name":"04-places-heritage","osm_type":"node","osm_id":6417427699,"category":"heritage","subtype":"droebel","name":"Droebel d'n Tute","is_bridge":false,"display_class":"heritage","source_url":"https://www.openstreetmap.org/node/6417427699","riverbank_distance_m":null}},{"type":"Feature","id":"node/6417427700","geometry":{"type":"Point","coordinates":[6.5319455,52.0041328]},"properties":{"source":"osm","query_name":"04-places-heritage","osm_type":"node","osm_id":6417427700,"category":"heritage","subtype":"droebel","name":"Droebel de Dorsterhuuze","is_bridge":false,"display_class":"heritage","source_url":"https://www.openstreetmap.org/node/6417427700","riverbank_distance_m":null}},{"type":"Feature","id":"node/6417427701","geometry":{"type":"Point","coordinates":[6.5313355,52.0014961]},"properties":{"source":"osm","query_name":"04-places-heritage","osm_type":"node","osm_id":6417427701,"category":"heritage","subtype":"droebel","name":"Droebel 't Rolder","is_bridge":false,"display_class":"heritage","source_url":"https://www.openstreetmap.org/node/6417427701","riverbank_distance_m":null}},{"type":"Feature","id":"node/6417427702","geometry":{"type":"Point","coordinates":[6.5195713,52.0032683]},"properties":{"source":"osm","query_name":"04-places-heritage","osm_type":"node","osm_id":6417427702,"category":"heritage","subtype":"droebel","name":"Droebel 't Hoenderboom","is_bridge":false,"display_class":"heritage","source_url":"https://www.openstreetmap.org/node/6417427702","riverbank_distance_m":null}},{"type":"Feature","id":"node/6417427713","geometry":{"type":"Point","coordinates":[6.5028461,52.0013126]},"properties":{"source":"osm","query_name":"04-places-heritage","osm_type":"node","osm_id":6417427713,"category":"heritage","subtype":"droebel","name":"Droebel 't Sprenkelder","is_bridge":false,"display_class":"heritage","source_url":"https://www.openstreetmap.org/node/6417427713","riverbank_distance_m":null}},{"type":"Feature","id":"node/6417427715","geometry":{"type":"Point","coordinates":[6.4969792,52.0044483]},"properties":{"source":"osm","query_name":"04-places-heritage","osm_type":"node","osm_id":6417427715,"category":"heritage","subtype":"droebel","name":"Droebel de Wopereis","is_bridge":false,"display_class":"heritage","source_url":"https://www.openstreetmap.org/node/6417427715","riverbank_distance_m":null}},{"type":"Feature","id":"node/6417427716","geometry":{"type":"Point","coordinates":[6.4966321,52.0004114]},"properties":{"source":"osm","query_name":"04-places-heritage","osm_type":"node","osm_id":6417427716,"category":"heritage","subtype":"droebel","name":"Droebel 't Spekschoor","is_bridge":false,"display_class":"heritage","source_url":"https://www.openstreetmap.org/node/6417427716","riverbank_distance_m":null}},{"type":"Feature","id":"node/6417427717","geometry":{"type":"Point","coordinates":[6.4870665,52.0037331]},"properties":{"source":"osm","query_name":"04-places-heritage","osm_type":"node","osm_id":6417427717,"category":"heritage","subtype":"droebel","name":"Droebel 't Reetbarg","is_bridge":false,"display_class":"heritage","source_url":"https://www.openstreetmap.org/node/6417427717","riverbank_distance_m":null}},{"type":"Feature","id":"node/6417427718","geometry":{"type":"Point","coordinates":[6.5287727,51.9964155]},"properties":{"source":"osm","query_name":"04-places-heritage","osm_type":"node","osm_id":6417427718,"category":"heritage","subtype":"droebel","name":"Droebel 't Kevelder","is_bridge":false,"display_class":"heritage","source_url":"https://www.openstreetmap.org/node/6417427718","riverbank_distance_m":null}},{"type":"Feature","id":"node/6417427703","geometry":{"type":"Point","coordinates":[6.5280794,52.0297669]},"properties":{"source":"osm","query_name":"04-places-heritage","osm_type":"node","osm_id":6417427703,"category":"heritage","subtype":"droebel","name":"Droebel de Katershorst","is_bridge":false,"display_class":"heritage","source_url":"https://www.openstreetmap.org/node/6417427703","riverbank_distance_m":null}},{"type":"Feature","id":"node/6417427704","geometry":{"type":"Point","coordinates":[6.5044081,52.0216323]},"properties":{"source":"osm","query_name":"04-places-heritage","osm_type":"node","osm_id":6417427704,"category":"heritage","subtype":"droebel","name":"Droebel de Platveute","is_bridge":false,"display_class":"heritage","source_url":"https://www.openstreetmap.org/node/6417427704","riverbank_distance_m":null}},{"type":"Feature","id":"node/6417427705","geometry":{"type":"Point","coordinates":[6.5070888,52.0204041]},"properties":{"source":"osm","query_name":"04-places-heritage","osm_type":"node","osm_id":6417427705,"category":"heritage","subtype":"droebel","name":"Droebel de Kunneri'je","is_bridge":false,"display_class":"heritage","source_url":"https://www.openstreetmap.org/node/6417427705","riverbank_distance_m":null}},{"type":"Feature","id":"node/6417427706","geometry":{"type":"Point","coordinates":[6.50201,52.0165609]},"properties":{"source":"osm","query_name":"04-places-heritage","osm_type":"node","osm_id":6417427706,"category":"heritage","subtype":"droebel","name":"Droebel de Kriegeri'je","is_bridge":false,"display_class":"heritage","source_url":"https://www.openstreetmap.org/node/6417427706","riverbank_distance_m":null}},{"type":"Feature","id":"node/6417427707","geometry":{"type":"Point","coordinates":[6.5084301,52.0165846]},"properties":{"source":"osm","query_name":"04-places-heritage","osm_type":"node","osm_id":6417427707,"category":"heritage","subtype":"droebel","name":"De Voshuzen","is_bridge":false,"display_class":"heritage","source_url":"https://www.openstreetmap.org/node/6417427707","riverbank_distance_m":null}},{"type":"Feature","id":"node/6417427708","geometry":{"type":"Point","coordinates":[6.5124781,52.0141696]},"properties":{"source":"osm","query_name":"04-places-heritage","osm_type":"node","osm_id":6417427708,"category":"heritage","subtype":"droebel","name":"Droebel de Grobberi'je","is_bridge":false,"display_class":"heritage","source_url":"https://www.openstreetmap.org/node/6417427708","riverbank_distance_m":null}},{"type":"Feature","id":"node/6417427709","geometry":{"type":"Point","coordinates":[6.5148289,52.0094509]},"properties":{"source":"osm","query_name":"04-places-heritage","osm_type":"node","osm_id":6417427709,"category":"heritage","subtype":"droebel","name":"Droebel 't Tiller","is_bridge":false,"display_class":"heritage","source_url":"https://www.openstreetmap.org/node/6417427709","riverbank_distance_m":null}},{"type":"Feature","id":"node/6417427710","geometry":{"type":"Point","coordinates":[6.5158589,52.012154]},"properties":{"source":"osm","query_name":"04-places-heritage","osm_type":"node","osm_id":6417427710,"category":"heritage","subtype":"droebel","name":"Droebel 't Bokeler","is_bridge":false,"display_class":"heritage","source_url":"https://www.openstreetmap.org/node/6417427710","riverbank_distance_m":null}},{"type":"Feature","id":"node/6417427711","geometry":{"type":"Point","coordinates":[6.5049481,52.0123675]},"properties":{"source":"osm","query_name":"04-places-heritage","osm_type":"node","osm_id":6417427711,"category":"heritage","subtype":"droebel","name":"Droebel de Beateri'je","is_bridge":false,"display_class":"heritage","source_url":"https://www.openstreetmap.org/node/6417427711","riverbank_distance_m":null}},{"type":"Feature","id":"node/6417427712","geometry":{"type":"Point","coordinates":[6.4988544,52.0117105]},"properties":{"source":"osm","query_name":"04-places-heritage","osm_type":"node","osm_id":6417427712,"category":"heritage","subtype":"droebel","name":"Droebel de Huuskeri'je","is_bridge":false,"display_class":"heritage","source_url":"https://www.openstreetmap.org/node/6417427712","riverbank_distance_m":null}},{"type":"Feature","id":"node/6417427714","geometry":{"type":"Point","coordinates":[6.5030574,52.0062552]},"properties":{"source":"osm","query_name":"04-places-heritage","osm_type":"node","osm_id":6417427714,"category":"heritage","subtype":"droebel","name":"Droebel 't Molder","is_bridge":false,"display_class":"heritage","source_url":"https://www.openstreetmap.org/node/6417427714","riverbank_distance_m":null}},{"type":"Feature","id":"node/6421838165","geometry":{"type":"Point","coordinates":[6.5143079,52.0281685]},"properties":{"source":"osm","query_name":"04-places-heritage","osm_type":"node","osm_id":6421838165,"category":"heritage","subtype":"droebel","name":"Droebel de Koolshuuze","is_bridge":false,"display_class":"heritage","source_url":"https://www.openstreetmap.org/node/6421838165","riverbank_distance_m":null}},{"type":"Feature","id":"node/6421838166","geometry":{"type":"Point","coordinates":[6.5252244,52.0090639]},"properties":{"source":"osm","query_name":"04-places-heritage","osm_type":"node","osm_id":6421838166,"category":"heritage","subtype":"droebel","name":"Droebel 't Zwaogas","is_bridge":false,"display_class":"heritage","source_url":"https://www.openstreetmap.org/node/6421838166","riverbank_distance_m":null}},{"type":"Feature","id":"node/6421838167","geometry":{"type":"Point","coordinates":[6.5017336,52.0181204]},"properties":{"source":"osm","query_name":"04-places-heritage","osm_type":"node","osm_id":6421838167,"category":"heritage","subtype":"droebel","name":"Droebel De Penteri'je","is_bridge":false,"display_class":"heritage","source_url":"https://www.openstreetmap.org/node/6421838167","riverbank_distance_m":null}},{"type":"Feature","id":"node/6421838168","geometry":{"type":"Point","coordinates":[6.4854902,52.0156113]},"properties":{"source":"osm","query_name":"04-places-heritage","osm_type":"node","osm_id":6421838168,"category":"heritage","subtype":"droebel","name":"Droebel 't Waalder","is_bridge":false,"display_class":"heritage","source_url":"https://www.openstreetmap.org/node/6421838168","riverbank_distance_m":null}},{"type":"Feature","id":"node/6421838169","geometry":{"type":"Point","coordinates":[6.4932954,52.0064949]},"properties":{"source":"osm","query_name":"04-places-heritage","osm_type":"node","osm_id":6421838169,"category":"heritage","subtype":"droebel","name":"Droebel de Wopereis/Jenteri'je","is_bridge":false,"display_class":"heritage","source_url":"https://www.openstreetmap.org/node/6421838169","riverbank_distance_m":null}},{"type":"Feature","id":"node/197701220","geometry":{"type":"Point","coordinates":[5.9652393,51.8085203]},"properties":{"source":"osm","query_name":"06-settlements","osm_type":"node","osm_id":197701220,"category":"settlement","subtype":"village","name":"Wyler","is_bridge":false,"display_class":"settlement","source_url":"https://www.openstreetmap.org/node/197701220","riverbank_distance_m":null}},{"type":"Feature","id":"node/1865539651","geometry":{"type":"Point","coordinates":[5.9737767,51.8234696]},"properties":{"source":"osm","query_name":"06-settlements","osm_type":"node","osm_id":1865539651,"category":"settlement","subtype":"village","name":"Zyfflich","is_bridge":false,"display_class":"settlement","source_url":"https://www.openstreetmap.org/node/1865539651","riverbank_distance_m":null}},{"type":"Feature","id":"node/5544031874","geometry":{"type":"Point","coordinates":[5.9246178,51.828871]},"properties":{"source":"osm","query_name":"06-settlements","osm_type":"node","osm_id":5544031874,"category":"settlement","subtype":"village","name":"Beek","is_bridge":false,"display_class":"settlement","source_url":"https://www.openstreetmap.org/node/5544031874","riverbank_distance_m":null}},{"type":"Feature","id":"node/6694245455","geometry":{"type":"Point","coordinates":[5.972352,51.8060679]},"properties":{"source":"osm","query_name":"06-settlements","osm_type":"node","osm_id":6694245455,"category":"settlement","subtype":"locality","name":"Brügeling","is_bridge":false,"display_class":"settlement","source_url":"https://www.openstreetmap.org/node/6694245455","riverbank_distance_m":null}},{"type":"Feature","id":"node/8709324625","geometry":{"type":"Point","coordinates":[5.9689771,51.8019628]},"properties":{"source":"osm","query_name":"06-settlements","osm_type":"node","osm_id":8709324625,"category":"settlement","subtype":"hamlet","name":"Lagewald","is_bridge":false,"display_class":"settlement","source_url":"https://www.openstreetmap.org/node/8709324625","riverbank_distance_m":null}},{"type":"Feature","id":"node/8709415004","geometry":{"type":"Point","coordinates":[5.9435026,51.8138077]},"properties":{"source":"osm","query_name":"06-settlements","osm_type":"node","osm_id":8709415004,"category":"settlement","subtype":"hamlet","name":"Holdeurn","is_bridge":false,"display_class":"settlement","source_url":"https://www.openstreetmap.org/node/8709415004","riverbank_distance_m":null}},{"type":"Feature","id":"node/8712046537","geometry":{"type":"Point","coordinates":[5.9269015,51.8122522]},"properties":{"source":"osm","query_name":"06-settlements","osm_type":"node","osm_id":8712046537,"category":"settlement","subtype":"hamlet","name":"Valkenlaagte","is_bridge":false,"display_class":"settlement","source_url":"https://www.openstreetmap.org/node/8712046537","riverbank_distance_m":null}},{"type":"Feature","id":"node/8715361520","geometry":{"type":"Point","coordinates":[5.9069676,51.8137495]},"properties":{"source":"osm","query_name":"06-settlements","osm_type":"node","osm_id":8715361520,"category":"settlement","subtype":"hamlet","name":"Meerwijk","is_bridge":false,"display_class":"settlement","source_url":"https://www.openstreetmap.org/node/8715361520","riverbank_distance_m":null}},{"type":"Feature","id":"node/11197339394","geometry":{"type":"Point","coordinates":[5.9093356,51.8260383]},"properties":{"source":"osm","query_name":"06-settlements","osm_type":"node","osm_id":11197339394,"category":"settlement","subtype":"village","name":"Berg en Dal","is_bridge":false,"display_class":"settlement","source_url":"https://www.openstreetmap.org/node/11197339394","riverbank_distance_m":null}},{"type":"Feature","id":"node/206996928","geometry":{"type":"Point","coordinates":[6.0189324,51.8263011]},"properties":{"source":"osm","query_name":"06-settlements","osm_type":"node","osm_id":206996928,"category":"settlement","subtype":"village","name":"Niel","is_bridge":false,"display_class":"settlement","source_url":"https://www.openstreetmap.org/node/206996928","riverbank_distance_m":null}},{"type":"Feature","id":"node/4077372230","geometry":{"type":"Point","coordinates":[6.0208001,51.8078577]},"properties":{"source":"osm","query_name":"06-settlements","osm_type":"node","osm_id":4077372230,"category":"settlement","subtype":"isolated_dwelling","name":"Scheffenthum","is_bridge":false,"display_class":"settlement","source_url":"https://www.openstreetmap.org/node/4077372230","riverbank_distance_m":null}},{"type":"Feature","id":"node/4338629405","geometry":{"type":"Point","coordinates":[6.056506,51.8104249]},"properties":{"source":"osm","query_name":"06-settlements","osm_type":"node","osm_id":4338629405,"category":"settlement","subtype":"village","name":"Mehr","is_bridge":false,"display_class":"settlement","source_url":"https://www.openstreetmap.org/node/4338629405","riverbank_distance_m":null}},{"type":"Feature","id":"node/197650539","geometry":{"type":"Point","coordinates":[6.0947889,51.8019986]},"properties":{"source":"osm","query_name":"06-settlements","osm_type":"node","osm_id":197650539,"category":"settlement","subtype":"village","name":"Donsbrüggen","is_bridge":false,"display_class":"settlement","source_url":"https://www.openstreetmap.org/node/197650539","riverbank_distance_m":null}},{"type":"Feature","id":"node/598318073","geometry":{"type":"Point","coordinates":[6.1065451,51.8298391]},"properties":{"source":"osm","query_name":"06-settlements","osm_type":"node","osm_id":598318073,"category":"settlement","subtype":"village","name":"Düffelward","is_bridge":false,"display_class":"settlement","source_url":"https://www.openstreetmap.org/node/598318073","riverbank_distance_m":null}},{"type":"Feature","id":"node/598318074","geometry":{"type":"Point","coordinates":[6.1398793,51.825655]},"properties":{"source":"osm","query_name":"06-settlements","osm_type":"node","osm_id":598318074,"category":"settlement","subtype":"village","name":"Wardhausen","is_bridge":false,"display_class":"settlement","source_url":"https://www.openstreetmap.org/node/598318074","riverbank_distance_m":null}},{"type":"Feature","id":"node/598318075","geometry":{"type":"Point","coordinates":[6.143268,51.8241081]},"properties":{"source":"osm","query_name":"06-settlements","osm_type":"node","osm_id":598318075,"category":"settlement","subtype":"village","name":"Brienen","is_bridge":false,"display_class":"settlement","source_url":"https://www.openstreetmap.org/node/598318075","riverbank_distance_m":null}},{"type":"Feature","id":"node/693681198","geometry":{"type":"Point","coordinates":[6.126392,51.8100894]},"properties":{"source":"osm","query_name":"06-settlements","osm_type":"node","osm_id":693681198,"category":"settlement","subtype":"village","name":"Rindern","is_bridge":false,"display_class":"settlement","source_url":"https://www.openstreetmap.org/node/693681198","riverbank_distance_m":null}},{"type":"Feature","id":"node/940352579","geometry":{"type":"Point","coordinates":[6.0901595,51.8003935]},"properties":{"source":"osm","query_name":"06-settlements","osm_type":"node","osm_id":940352579,"category":"settlement","subtype":"neighbourhood","name":"Dorfplatz","is_bridge":false,"display_class":"settlement","source_url":"https://www.openstreetmap.org/node/940352579","riverbank_distance_m":null}},{"type":"Feature","id":"node/5027021257","geometry":{"type":"Point","coordinates":[6.111579,51.8113064]},"properties":{"source":"osm","query_name":"06-settlements","osm_type":"node","osm_id":5027021257,"category":"settlement","subtype":"farm","name":"Kampshof","is_bridge":false,"display_class":"settlement","source_url":"https://www.openstreetmap.org/node/5027021257","riverbank_distance_m":null}},{"type":"Feature","id":"node/271221294","geometry":{"type":"Point","coordinates":[6.2013771,51.8099873]},"properties":{"source":"osm","query_name":"06-settlements","osm_type":"node","osm_id":271221294,"category":"settlement","subtype":"village","name":"Warbeyen","is_bridge":false,"display_class":"settlement","source_url":"https://www.openstreetmap.org/node/271221294","riverbank_distance_m":null}},{"type":"Feature","id":"node/1299300297","geometry":{"type":"Point","coordinates":[6.1661859,51.8234418]},"properties":{"source":"osm","query_name":"06-settlements","osm_type":"node","osm_id":1299300297,"category":"settlement","subtype":"village","name":"Griethausen","is_bridge":false,"display_class":"settlement","source_url":"https://www.openstreetmap.org/node/1299300297","riverbank_distance_m":null}},{"type":"Feature","id":"node/8517847101","geometry":{"type":"Point","coordinates":[6.2246581,51.806509]},"properties":{"source":"osm","query_name":"06-settlements","osm_type":"node","osm_id":8517847101,"category":"settlement","subtype":"locality","name":"Dornenbusch","is_bridge":false,"display_class":"settlement","source_url":"https://www.openstreetmap.org/node/8517847101","riverbank_distance_m":null}},{"type":"Feature","id":"node/8517847103","geometry":{"type":"Point","coordinates":[6.2211324,51.8102288]},"properties":{"source":"osm","query_name":"06-settlements","osm_type":"node","osm_id":8517847103,"category":"settlement","subtype":"locality","name":"Rheinweide","is_bridge":false,"display_class":"settlement","source_url":"https://www.openstreetmap.org/node/8517847103","riverbank_distance_m":null}},{"type":"Feature","id":"node/8517847104","geometry":{"type":"Point","coordinates":[6.2062105,51.8011288]},"properties":{"source":"osm","query_name":"06-settlements","osm_type":"node","osm_id":8517847104,"category":"settlement","subtype":"locality","name":"Die Flöt","is_bridge":false,"display_class":"settlement","source_url":"https://www.openstreetmap.org/node/8517847104","riverbank_distance_m":null}},{"type":"Feature","id":"node/8517847105","geometry":{"type":"Point","coordinates":[6.2119572,51.8017022]},"properties":{"source":"osm","query_name":"06-settlements","osm_type":"node","osm_id":8517847105,"category":"settlement","subtype":"locality","name":"Kiwesward","is_bridge":false,"display_class":"settlement","source_url":"https://www.openstreetmap.org/node/8517847105","riverbank_distance_m":null}},{"type":"Feature","id":"node/8517847106","geometry":{"type":"Point","coordinates":[6.210631,51.8087156]},"properties":{"source":"osm","query_name":"06-settlements","osm_type":"node","osm_id":8517847106,"category":"settlement","subtype":"locality","name":"Das Kropsche Feld","is_bridge":false,"display_class":"settlement","source_url":"https://www.openstreetmap.org/node/8517847106","riverbank_distance_m":null}},{"type":"Feature","id":"node/8517847107","geometry":{"type":"Point","coordinates":[6.2164774,51.8070257]},"properties":{"source":"osm","query_name":"06-settlements","osm_type":"node","osm_id":8517847107,"category":"settlement","subtype":"locality","name":"Kiwesfeld","is_bridge":false,"display_class":"settlement","source_url":"https://www.openstreetmap.org/node/8517847107","riverbank_distance_m":null}},{"type":"Feature","id":"node/8518935944","geometry":{"type":"Point","coordinates":[6.2246469,51.806533]},"properties":{"source":"osm","query_name":"06-settlements","osm_type":"node","osm_id":8518935944,"category":"settlement","subtype":"locality","name":"Dornenbusch","is_bridge":false,"display_class":"settlement","source_url":"https://www.openstreetmap.org/node/8518935944","riverbank_distance_m":null}},{"type":"Feature","id":"node/36052095","geometry":{"type":"Point","coordinates":[6.2428283,51.8322137]},"properties":{"source":"osm","query_name":"06-settlements","osm_type":"node","osm_id":36052095,"category":"settlement","subtype":"town","name":"Emmerich am Rhein","is_bridge":false,"display_class":"settlement","source_url":"https://www.openstreetmap.org/node/36052095","riverbank_distance_m":null}},{"type":"Feature","id":"node/6724818890","geometry":{"type":"Point","coordinates":[6.2563163,51.8014445]},"properties":{"source":"osm","query_name":"06-settlements","osm_type":"node","osm_id":6724818890,"category":"settlement","subtype":"village","name":"Emmericher Eyland","is_bridge":false,"display_class":"settlement","source_url":"https://www.openstreetmap.org/node/6724818890","riverbank_distance_m":null}},{"type":"Feature","id":"node/8517847100","geometry":{"type":"Point","coordinates":[6.2291433,51.8093489]},"properties":{"source":"osm","query_name":"06-settlements","osm_type":"node","osm_id":8517847100,"category":"settlement","subtype":"locality","name":"Roggkämpchen","is_bridge":false,"display_class":"settlement","source_url":"https://www.openstreetmap.org/node/8517847100","riverbank_distance_m":null}},{"type":"Feature","id":"node/8518935945","geometry":{"type":"Point","coordinates":[6.2341064,51.8080371]},"properties":{"source":"osm","query_name":"06-settlements","osm_type":"node","osm_id":8518935945,"category":"settlement","subtype":"locality","name":"Diakonieweide","is_bridge":false,"display_class":"settlement","source_url":"https://www.openstreetmap.org/node/8518935945","riverbank_distance_m":null}},{"type":"Feature","id":"node/321652356","geometry":{"type":"Point","coordinates":[6.3099568,51.814726]},"properties":{"source":"osm","query_name":"06-settlements","osm_type":"node","osm_id":321652356,"category":"settlement","subtype":"village","name":"Dornick","is_bridge":false,"display_class":"settlement","source_url":"https://www.openstreetmap.org/node/321652356","riverbank_distance_m":null}},{"type":"Feature","id":"node/321653071","geometry":{"type":"Point","coordinates":[6.3101363,51.8254059]},"properties":{"source":"osm","query_name":"06-settlements","osm_type":"node","osm_id":321653071,"category":"settlement","subtype":"village","name":"Vrasselt","is_bridge":false,"display_class":"settlement","source_url":"https://www.openstreetmap.org/node/321653071","riverbank_distance_m":null}},{"type":"Feature","id":"node/352916154","geometry":{"type":"Point","coordinates":[6.3400098,51.8221788]},"properties":{"source":"osm","query_name":"06-settlements","osm_type":"node","osm_id":352916154,"category":"settlement","subtype":"village","name":"Praest","is_bridge":false,"display_class":"settlement","source_url":"https://www.openstreetmap.org/node/352916154","riverbank_distance_m":null}},{"type":"Feature","id":"node/365964596","geometry":{"type":"Point","coordinates":[6.369737,51.8015916]},"properties":{"source":"osm","query_name":"06-settlements","osm_type":"node","osm_id":365964596,"category":"settlement","subtype":"village","name":"Bienen","is_bridge":false,"display_class":"settlement","source_url":"https://www.openstreetmap.org/node/365964596","riverbank_distance_m":null}},{"type":"Feature","id":"node/4623824695","geometry":{"type":"Point","coordinates":[6.3128209,51.8189401]},"properties":{"source":"osm","query_name":"06-settlements","osm_type":"node","osm_id":4623824695,"category":"settlement","subtype":"locality","name":"Drei Könige","is_bridge":false,"display_class":"settlement","source_url":"https://www.openstreetmap.org/node/4623824695","riverbank_distance_m":null}},{"type":"Feature","id":"node/276523820","geometry":{"type":"Point","coordinates":[6.3961528,51.808626]},"properties":{"source":"osm","query_name":"06-settlements","osm_type":"node","osm_id":276523820,"category":"settlement","subtype":"village","name":"Millingen","is_bridge":false,"display_class":"settlement","source_url":"https://www.openstreetmap.org/node/276523820","riverbank_distance_m":null}},{"type":"Feature","id":"node/655298251","geometry":{"type":"Point","coordinates":[6.4114803,51.8153856]},"properties":{"source":"osm","query_name":"06-settlements","osm_type":"node","osm_id":655298251,"category":"settlement","subtype":"hamlet","name":"Schovelt","is_bridge":false,"display_class":"settlement","source_url":"https://www.openstreetmap.org/node/655298251","riverbank_distance_m":null}},{"type":"Feature","id":"node/655298259","geometry":{"type":"Point","coordinates":[6.4556466,51.8222365]},"properties":{"source":"osm","query_name":"06-settlements","osm_type":"node","osm_id":655298259,"category":"settlement","subtype":"hamlet","name":"Bruchschläge","is_bridge":false,"display_class":"settlement","source_url":"https://www.openstreetmap.org/node/655298259","riverbank_distance_m":null}},{"type":"Feature","id":"node/3829809537","geometry":{"type":"Point","coordinates":[6.4126858,51.827762]},"properties":{"source":"osm","query_name":"06-settlements","osm_type":"node","osm_id":3829809537,"category":"settlement","subtype":"locality","name":"Hausacker","is_bridge":false,"display_class":"settlement","source_url":"https://www.openstreetmap.org/node/3829809537","riverbank_distance_m":null}},{"type":"Feature","id":"node/3829809549","geometry":{"type":"Point","coordinates":[6.4147801,51.831422]},"properties":{"source":"osm","query_name":"06-settlements","osm_type":"node","osm_id":3829809549,"category":"settlement","subtype":"locality","name":"Klein Rahmann","is_bridge":false,"display_class":"settlement","source_url":"https://www.openstreetmap.org/node/3829809549","riverbank_distance_m":null}},{"type":"Feature","id":"node/3829809550","geometry":{"type":"Point","coordinates":[6.4171765,51.8302244]},"properties":{"source":"osm","query_name":"06-settlements","osm_type":"node","osm_id":3829809550,"category":"settlement","subtype":"locality","name":"Kleine Veen","is_bridge":false,"display_class":"settlement","source_url":"https://www.openstreetmap.org/node/3829809550","riverbank_distance_m":null}},{"type":"Feature","id":"node/3829809551","geometry":{"type":"Point","coordinates":[6.4126677,51.8337192]},"properties":{"source":"osm","query_name":"06-settlements","osm_type":"node","osm_id":3829809551,"category":"settlement","subtype":"locality","name":"Klöttchen","is_bridge":false,"display_class":"settlement","source_url":"https://www.openstreetmap.org/node/3829809551","riverbank_distance_m":null}},{"type":"Feature","id":"node/3829809957","geometry":{"type":"Point","coordinates":[6.4117659,51.8307341]},"properties":{"source":"osm","query_name":"06-settlements","osm_type":"node","osm_id":3829809957,"category":"settlement","subtype":"locality","name":"Mühlenkamp","is_bridge":false,"display_class":"settlement","source_url":"https://www.openstreetmap.org/node/3829809957","riverbank_distance_m":null}},{"type":"Feature","id":"node/3831438142","geometry":{"type":"Point","coordinates":[6.4513649,51.8303034]},"properties":{"source":"osm","query_name":"06-settlements","osm_type":"node","osm_id":3831438142,"category":"settlement","subtype":"locality","name":"Der Gehr","is_bridge":false,"display_class":"settlement","source_url":"https://www.openstreetmap.org/node/3831438142","riverbank_distance_m":null}},{"type":"Feature","id":"node/3831438145","geometry":{"type":"Point","coordinates":[6.4446725,51.8264351]},"properties":{"source":"osm","query_name":"06-settlements","osm_type":"node","osm_id":3831438145,"category":"settlement","subtype":"locality","name":"Der Kamp","is_bridge":false,"display_class":"settlement","source_url":"https://www.openstreetmap.org/node/3831438145","riverbank_distance_m":null}},{"type":"Feature","id":"node/3831438149","geometry":{"type":"Point","coordinates":[6.4616766,51.8293592]},"properties":{"source":"osm","query_name":"06-settlements","osm_type":"node","osm_id":3831438149,"category":"settlement","subtype":"locality","name":"Eisenmathe","is_bridge":false,"display_class":"settlement","source_url":"https://www.openstreetmap.org/node/3831438149","riverbank_distance_m":null}},{"type":"Feature","id":"node/3831438153","geometry":{"type":"Point","coordinates":[6.4629477,51.8271169]},"properties":{"source":"osm","query_name":"06-settlements","osm_type":"node","osm_id":3831438153,"category":"settlement","subtype":"locality","name":"Hinterm Berg","is_bridge":false,"display_class":"settlement","source_url":"https://www.openstreetmap.org/node/3831438153","riverbank_distance_m":null}},{"type":"Feature","id":"node/3831438155","geometry":{"type":"Point","coordinates":[6.4529623,51.8217935]},"properties":{"source":"osm","query_name":"06-settlements","osm_type":"node","osm_id":3831438155,"category":"settlement","subtype":"locality","name":"Isselburger Feld","is_bridge":false,"display_class":"settlement","source_url":"https://www.openstreetmap.org/node/3831438155","riverbank_distance_m":null}},{"type":"Feature","id":"node/3831438156","geometry":{"type":"Point","coordinates":[6.44998,51.8274217]},"properties":{"source":"osm","query_name":"06-settlements","osm_type":"node","osm_id":3831438156,"category":"settlement","subtype":"locality","name":"Isselsche Feld","is_bridge":false,"display_class":"settlement","source_url":"https://www.openstreetmap.org/node/3831438156","riverbank_distance_m":null}},{"type":"Feature","id":"node/3831438659","geometry":{"type":"Point","coordinates":[6.4588431,51.8285627]},"properties":{"source":"osm","query_name":"06-settlements","osm_type":"node","osm_id":3831438659,"category":"settlement","subtype":"locality","name":"Kroebweiden","is_bridge":false,"display_class":"settlement","source_url":"https://www.openstreetmap.org/node/3831438659","riverbank_distance_m":null}},{"type":"Feature","id":"node/3831438672","geometry":{"type":"Point","coordinates":[6.4411691,51.8214566]},"properties":{"source":"osm","query_name":"06-settlements","osm_type":"node","osm_id":3831438672,"category":"settlement","subtype":"locality","name":"Uhlenkamp","is_bridge":false,"display_class":"settlement","source_url":"https://www.openstreetmap.org/node/3831438672","riverbank_distance_m":null}},{"type":"Feature","id":"node/3831489395","geometry":{"type":"Point","coordinates":[6.4538183,51.8170901]},"properties":{"source":"osm","query_name":"06-settlements","osm_type":"node","osm_id":3831489395,"category":"settlement","subtype":"locality","name":"Am Rompott","is_bridge":false,"display_class":"settlement","source_url":"https://www.openstreetmap.org/node/3831489395","riverbank_distance_m":null}},{"type":"Feature","id":"node/3831489404","geometry":{"type":"Point","coordinates":[6.460326,51.8030776]},"properties":{"source":"osm","query_name":"06-settlements","osm_type":"node","osm_id":3831489404,"category":"settlement","subtype":"locality","name":"Birkendriesch","is_bridge":false,"display_class":"settlement","source_url":"https://www.openstreetmap.org/node/3831489404","riverbank_distance_m":null}},{"type":"Feature","id":"node/3831489405","geometry":{"type":"Point","coordinates":[6.456332,51.8168543]},"properties":{"source":"osm","query_name":"06-settlements","osm_type":"node","osm_id":3831489405,"category":"settlement","subtype":"locality","name":"Boyenkate","is_bridge":false,"display_class":"settlement","source_url":"https://www.openstreetmap.org/node/3831489405","riverbank_distance_m":null}},{"type":"Feature","id":"node/3831489406","geometry":{"type":"Point","coordinates":[6.4558144,51.8013114]},"properties":{"source":"osm","query_name":"06-settlements","osm_type":"node","osm_id":3831489406,"category":"settlement","subtype":"locality","name":"Bromberg","is_bridge":false,"display_class":"settlement","source_url":"https://www.openstreetmap.org/node/3831489406","riverbank_distance_m":null}},{"type":"Feature","id":"node/3831489420","geometry":{"type":"Point","coordinates":[6.4405471,51.8182113]},"properties":{"source":"osm","query_name":"06-settlements","osm_type":"node","osm_id":3831489420,"category":"settlement","subtype":"locality","name":"Die Weiden","is_bridge":false,"display_class":"settlement","source_url":"https://www.openstreetmap.org/node/3831489420","riverbank_distance_m":null}},{"type":"Feature","id":"node/3831489426","geometry":{"type":"Point","coordinates":[6.464243,51.8039327]},"properties":{"source":"osm","query_name":"06-settlements","osm_type":"node","osm_id":3831489426,"category":"settlement","subtype":"locality","name":"Haferkamp","is_bridge":false,"display_class":"settlement","source_url":"https://www.openstreetmap.org/node/3831489426","riverbank_distance_m":null}},{"type":"Feature","id":"node/3831489429","geometry":{"type":"Point","coordinates":[6.4505812,51.8169155]},"properties":{"source":"osm","query_name":"06-settlements","osm_type":"node","osm_id":3831489429,"category":"settlement","subtype":"locality","name":"Heuschlag","is_bridge":false,"display_class":"settlement","source_url":"https://www.openstreetmap.org/node/3831489429","riverbank_distance_m":null}},{"type":"Feature","id":"node/3831489433","geometry":{"type":"Point","coordinates":[6.4508878,51.8150583]},"properties":{"source":"osm","query_name":"06-settlements","osm_type":"node","osm_id":3831489433,"category":"settlement","subtype":"locality","name":"In den Weiden","is_bridge":false,"display_class":"settlement","source_url":"https://www.openstreetmap.org/node/3831489433","riverbank_distance_m":null}},{"type":"Feature","id":"node/3831489434","geometry":{"type":"Point","coordinates":[6.4388984,51.8193915]},"properties":{"source":"osm","query_name":"06-settlements","osm_type":"node","osm_id":3831489434,"category":"settlement","subtype":"locality","name":"In der Mint","is_bridge":false,"display_class":"settlement","source_url":"https://www.openstreetmap.org/node/3831489434","riverbank_distance_m":null}},{"type":"Feature","id":"node/3831489439","geometry":{"type":"Point","coordinates":[6.4633966,51.8159858]},"properties":{"source":"osm","query_name":"06-settlements","osm_type":"node","osm_id":3831489439,"category":"settlement","subtype":"locality","name":"Kattenbruchsbaum","is_bridge":false,"display_class":"settlement","source_url":"https://www.openstreetmap.org/node/3831489439","riverbank_distance_m":null}},{"type":"Feature","id":"node/3831489441","geometry":{"type":"Point","coordinates":[6.4375293,51.8151309]},"properties":{"source":"osm","query_name":"06-settlements","osm_type":"node","osm_id":3831489441,"category":"settlement","subtype":"locality","name":"Kaulwip","is_bridge":false,"display_class":"settlement","source_url":"https://www.openstreetmap.org/node/3831489441","riverbank_distance_m":null}},{"type":"Feature","id":"node/3831489443","geometry":{"type":"Point","coordinates":[6.4422195,51.8159226]},"properties":{"source":"osm","query_name":"06-settlements","osm_type":"node","osm_id":3831489443,"category":"settlement","subtype":"locality","name":"Klauersweide","is_bridge":false,"display_class":"settlement","source_url":"https://www.openstreetmap.org/node/3831489443","riverbank_distance_m":null}},{"type":"Feature","id":"node/3831489454","geometry":{"type":"Point","coordinates":[6.4601549,51.8159441]},"properties":{"source":"osm","query_name":"06-settlements","osm_type":"node","osm_id":3831489454,"category":"settlement","subtype":"locality","name":"Springerlei","is_bridge":false,"display_class":"settlement","source_url":"https://www.openstreetmap.org/node/3831489454","riverbank_distance_m":null}},{"type":"Feature","id":"node/3831489455","geometry":{"type":"Point","coordinates":[6.4623991,51.8026369]},"properties":{"source":"osm","query_name":"06-settlements","osm_type":"node","osm_id":3831489455,"category":"settlement","subtype":"locality","name":"Weymannsbus","is_bridge":false,"display_class":"settlement","source_url":"https://www.openstreetmap.org/node/3831489455","riverbank_distance_m":null}},{"type":"Feature","id":"node/3831489456","geometry":{"type":"Point","coordinates":[6.4556077,51.8185541]},"properties":{"source":"osm","query_name":"06-settlements","osm_type":"node","osm_id":3831489456,"category":"settlement","subtype":"locality","name":"Winsbusch","is_bridge":false,"display_class":"settlement","source_url":"https://www.openstreetmap.org/node/3831489456","riverbank_distance_m":null}},{"type":"Feature","id":"node/3833108657","geometry":{"type":"Point","coordinates":[6.4233056,51.8132796]},"properties":{"source":"osm","query_name":"06-settlements","osm_type":"node","osm_id":3833108657,"category":"settlement","subtype":"locality","name":"Am Krusen Baum","is_bridge":false,"display_class":"settlement","source_url":"https://www.openstreetmap.org/node/3833108657","riverbank_distance_m":null}},{"type":"Feature","id":"node/3833108658","geometry":{"type":"Point","coordinates":[6.4296505,51.8167565]},"properties":{"source":"osm","query_name":"06-settlements","osm_type":"node","osm_id":3833108658,"category":"settlement","subtype":"locality","name":"An der Landwehr","is_bridge":false,"display_class":"settlement","source_url":"https://www.openstreetmap.org/node/3833108658","riverbank_distance_m":null}},{"type":"Feature","id":"node/3833108659","geometry":{"type":"Point","coordinates":[6.4410837,51.8085318]},"properties":{"source":"osm","query_name":"06-settlements","osm_type":"node","osm_id":3833108659,"category":"settlement","subtype":"locality","name":"Auf´m Brei","is_bridge":false,"display_class":"settlement","source_url":"https://www.openstreetmap.org/node/3833108659","riverbank_distance_m":null}},{"type":"Feature","id":"node/3833108660","geometry":{"type":"Point","coordinates":[6.4453085,51.814174]},"properties":{"source":"osm","query_name":"06-settlements","osm_type":"node","osm_id":3833108660,"category":"settlement","subtype":"locality","name":"Auf´m Büngertken","is_bridge":false,"display_class":"settlement","source_url":"https://www.openstreetmap.org/node/3833108660","riverbank_distance_m":null}},{"type":"Feature","id":"node/3833108661","geometry":{"type":"Point","coordinates":[6.4346813,51.8073873]},"properties":{"source":"osm","query_name":"06-settlements","osm_type":"node","osm_id":3833108661,"category":"settlement","subtype":"locality","name":"Auf´m Driesch","is_bridge":false,"display_class":"settlement","source_url":"https://www.openstreetmap.org/node/3833108661","riverbank_distance_m":null}},{"type":"Feature","id":"node/3833108662","geometry":{"type":"Point","coordinates":[6.439441,51.8099416]},"properties":{"source":"osm","query_name":"06-settlements","osm_type":"node","osm_id":3833108662,"category":"settlement","subtype":"locality","name":"Braunhof","is_bridge":false,"display_class":"settlement","source_url":"https://www.openstreetmap.org/node/3833108662","riverbank_distance_m":null}},{"type":"Feature","id":"node/3833108663","geometry":{"type":"Point","coordinates":[6.4402228,51.8140408]},"properties":{"source":"osm","query_name":"06-settlements","osm_type":"node","osm_id":3833108663,"category":"settlement","subtype":"locality","name":"Brei Kaul","is_bridge":false,"display_class":"settlement","source_url":"https://www.openstreetmap.org/node/3833108663","riverbank_distance_m":null}},{"type":"Feature","id":"node/3833108664","geometry":{"type":"Point","coordinates":[6.4346596,51.8156994]},"properties":{"source":"osm","query_name":"06-settlements","osm_type":"node","osm_id":3833108664,"category":"settlement","subtype":"locality","name":"Der Brei","is_bridge":false,"display_class":"settlement","source_url":"https://www.openstreetmap.org/node/3833108664","riverbank_distance_m":null}},{"type":"Feature","id":"node/3833108665","geometry":{"type":"Point","coordinates":[6.4324208,51.8094892]},"properties":{"source":"osm","query_name":"06-settlements","osm_type":"node","osm_id":3833108665,"category":"settlement","subtype":"locality","name":"Der Kloot","is_bridge":false,"display_class":"settlement","source_url":"https://www.openstreetmap.org/node/3833108665","riverbank_distance_m":null}},{"type":"Feature","id":"node/3833108666","geometry":{"type":"Point","coordinates":[6.448499,51.8119355]},"properties":{"source":"osm","query_name":"06-settlements","osm_type":"node","osm_id":3833108666,"category":"settlement","subtype":"locality","name":"Die Gier","is_bridge":false,"display_class":"settlement","source_url":"https://www.openstreetmap.org/node/3833108666","riverbank_distance_m":null}},{"type":"Feature","id":"node/3833108667","geometry":{"type":"Point","coordinates":[6.4557857,51.8082686]},"properties":{"source":"osm","query_name":"06-settlements","osm_type":"node","osm_id":3833108667,"category":"settlement","subtype":"locality","name":"Die Schlacht","is_bridge":false,"display_class":"settlement","source_url":"https://www.openstreetmap.org/node/3833108667","riverbank_distance_m":null}},{"type":"Feature","id":"node/3833108668","geometry":{"type":"Point","coordinates":[6.4255814,51.8124695]},"properties":{"source":"osm","query_name":"06-settlements","osm_type":"node","osm_id":3833108668,"category":"settlement","subtype":"locality","name":"Driesch","is_bridge":false,"display_class":"settlement","source_url":"https://www.openstreetmap.org/node/3833108668","riverbank_distance_m":null}},{"type":"Feature","id":"node/3833108669","geometry":{"type":"Point","coordinates":[6.4381074,51.810418]},"properties":{"source":"osm","query_name":"06-settlements","osm_type":"node","osm_id":3833108669,"category":"settlement","subtype":"locality","name":"Friedbusch","is_bridge":false,"display_class":"settlement","source_url":"https://www.openstreetmap.org/node/3833108669","riverbank_distance_m":null}},{"type":"Feature","id":"node/3833108670","geometry":{"type":"Point","coordinates":[6.4520925,51.8066601]},"properties":{"source":"osm","query_name":"06-settlements","osm_type":"node","osm_id":3833108670,"category":"settlement","subtype":"locality","name":"Fährbecksfeld","is_bridge":false,"display_class":"settlement","source_url":"https://www.openstreetmap.org/node/3833108670","riverbank_distance_m":null}},{"type":"Feature","id":"node/3833108671","geometry":{"type":"Point","coordinates":[6.4337089,51.8197212]},"properties":{"source":"osm","query_name":"06-settlements","osm_type":"node","osm_id":3833108671,"category":"settlement","subtype":"locality","name":"Gallago","is_bridge":false,"display_class":"settlement","source_url":"https://www.openstreetmap.org/node/3833108671","riverbank_distance_m":null}},{"type":"Feature","id":"node/3833108672","geometry":{"type":"Point","coordinates":[6.4355448,51.8140347]},"properties":{"source":"osm","query_name":"06-settlements","osm_type":"node","osm_id":3833108672,"category":"settlement","subtype":"locality","name":"Geer","is_bridge":false,"display_class":"settlement","source_url":"https://www.openstreetmap.org/node/3833108672","riverbank_distance_m":null}},{"type":"Feature","id":"node/3833108673","geometry":{"type":"Point","coordinates":[6.4204196,51.8199901]},"properties":{"source":"osm","query_name":"06-settlements","osm_type":"node","osm_id":3833108673,"category":"settlement","subtype":"locality","name":"Graevinghof","is_bridge":false,"display_class":"settlement","source_url":"https://www.openstreetmap.org/node/3833108673","riverbank_distance_m":null}},{"type":"Feature","id":"node/3833108674","geometry":{"type":"Point","coordinates":[6.4630224,51.806869]},"properties":{"source":"osm","query_name":"06-settlements","osm_type":"node","osm_id":3833108674,"category":"settlement","subtype":"locality","name":"Große Feld","is_bridge":false,"display_class":"settlement","source_url":"https://www.openstreetmap.org/node/3833108674","riverbank_distance_m":null}},{"type":"Feature","id":"node/3833108675","geometry":{"type":"Point","coordinates":[6.433067,51.8049384]},"properties":{"source":"osm","query_name":"06-settlements","osm_type":"node","osm_id":3833108675,"category":"settlement","subtype":"locality","name":"Heidberg","is_bridge":false,"display_class":"settlement","source_url":"https://www.openstreetmap.org/node/3833108675","riverbank_distance_m":null}},{"type":"Feature","id":"node/3833108676","geometry":{"type":"Point","coordinates":[6.4350819,51.8093507]},"properties":{"source":"osm","query_name":"06-settlements","osm_type":"node","osm_id":3833108676,"category":"settlement","subtype":"locality","name":"Heidkamp","is_bridge":false,"display_class":"settlement","source_url":"https://www.openstreetmap.org/node/3833108676","riverbank_distance_m":null}},{"type":"Feature","id":"node/3833108677","geometry":{"type":"Point","coordinates":[6.4335889,51.8112581]},"properties":{"source":"osm","query_name":"06-settlements","osm_type":"node","osm_id":3833108677,"category":"settlement","subtype":"locality","name":"Hofacker","is_bridge":false,"display_class":"settlement","source_url":"https://www.openstreetmap.org/node/3833108677","riverbank_distance_m":null}},{"type":"Feature","id":"node/3833108678","geometry":{"type":"Point","coordinates":[6.4436046,51.8131413]},"properties":{"source":"osm","query_name":"06-settlements","osm_type":"node","osm_id":3833108678,"category":"settlement","subtype":"locality","name":"Hofacker","is_bridge":false,"display_class":"settlement","source_url":"https://www.openstreetmap.org/node/3833108678","riverbank_distance_m":null}},{"type":"Feature","id":"node/3833108679","geometry":{"type":"Point","coordinates":[6.4246974,51.8155585]},"properties":{"source":"osm","query_name":"06-settlements","osm_type":"node","osm_id":3833108679,"category":"settlement","subtype":"locality","name":"Hohen Pass","is_bridge":false,"display_class":"settlement","source_url":"https://www.openstreetmap.org/node/3833108679","riverbank_distance_m":null}},{"type":"Feature","id":"node/3833108680","geometry":{"type":"Point","coordinates":[6.438591,51.805168]},"properties":{"source":"osm","query_name":"06-settlements","osm_type":"node","osm_id":3833108680,"category":"settlement","subtype":"locality","name":"Holbusheide","is_bridge":false,"display_class":"settlement","source_url":"https://www.openstreetmap.org/node/3833108680","riverbank_distance_m":null}},{"type":"Feature","id":"node/3833108681","geometry":{"type":"Point","coordinates":[6.4309198,51.808861]},"properties":{"source":"osm","query_name":"06-settlements","osm_type":"node","osm_id":3833108681,"category":"settlement","subtype":"locality","name":"Kamp","is_bridge":false,"display_class":"settlement","source_url":"https://www.openstreetmap.org/node/3833108681","riverbank_distance_m":null}},{"type":"Feature","id":"node/3833108682","geometry":{"type":"Point","coordinates":[6.4480041,51.8129935]},"properties":{"source":"osm","query_name":"06-settlements","osm_type":"node","osm_id":3833108682,"category":"settlement","subtype":"locality","name":"Kamp","is_bridge":false,"display_class":"settlement","source_url":"https://www.openstreetmap.org/node/3833108682","riverbank_distance_m":null}},{"type":"Feature","id":"node/3833108683","geometry":{"type":"Point","coordinates":[6.4291106,51.8123553]},"properties":{"source":"osm","query_name":"06-settlements","osm_type":"node","osm_id":3833108683,"category":"settlement","subtype":"locality","name":"Kaul","is_bridge":false,"display_class":"settlement","source_url":"https://www.openstreetmap.org/node/3833108683","riverbank_distance_m":null}},{"type":"Feature","id":"node/3833108684","geometry":{"type":"Point","coordinates":[6.4357951,51.8124444]},"properties":{"source":"osm","query_name":"06-settlements","osm_type":"node","osm_id":3833108684,"category":"settlement","subtype":"locality","name":"Kirchhof","is_bridge":false,"display_class":"settlement","source_url":"https://www.openstreetmap.org/node/3833108684","riverbank_distance_m":null}},{"type":"Feature","id":"node/3833108685","geometry":{"type":"Point","coordinates":[6.4412534,51.8096538]},"properties":{"source":"osm","query_name":"06-settlements","osm_type":"node","osm_id":3833108685,"category":"settlement","subtype":"locality","name":"Klötges","is_bridge":false,"display_class":"settlement","source_url":"https://www.openstreetmap.org/node/3833108685","riverbank_distance_m":null}},{"type":"Feature","id":"node/3833108686","geometry":{"type":"Point","coordinates":[6.44849,51.8093193]},"properties":{"source":"osm","query_name":"06-settlements","osm_type":"node","osm_id":3833108686,"category":"settlement","subtype":"locality","name":"Krahnenkate","is_bridge":false,"display_class":"settlement","source_url":"https://www.openstreetmap.org/node/3833108686","riverbank_distance_m":null}},{"type":"Feature","id":"node/3833108687","geometry":{"type":"Point","coordinates":[6.4334814,51.8119771]},"properties":{"source":"osm","query_name":"06-settlements","osm_type":"node","osm_id":3833108687,"category":"settlement","subtype":"locality","name":"Kreuzhügel","is_bridge":false,"display_class":"settlement","source_url":"https://www.openstreetmap.org/node/3833108687","riverbank_distance_m":null}},{"type":"Feature","id":"node/3833108688","geometry":{"type":"Point","coordinates":[6.4358178,51.8171627]},"properties":{"source":"osm","query_name":"06-settlements","osm_type":"node","osm_id":3833108688,"category":"settlement","subtype":"locality","name":"Kälberweiden","is_bridge":false,"display_class":"settlement","source_url":"https://www.openstreetmap.org/node/3833108688","riverbank_distance_m":null}},{"type":"Feature","id":"node/3833108689","geometry":{"type":"Point","coordinates":[6.4366016,51.8133126]},"properties":{"source":"osm","query_name":"06-settlements","osm_type":"node","osm_id":3833108689,"category":"settlement","subtype":"locality","name":"Lange End","is_bridge":false,"display_class":"settlement","source_url":"https://www.openstreetmap.org/node/3833108689","riverbank_distance_m":null}},{"type":"Feature","id":"node/3833108690","geometry":{"type":"Point","coordinates":[6.4586772,51.8060887]},"properties":{"source":"osm","query_name":"06-settlements","osm_type":"node","osm_id":3833108690,"category":"settlement","subtype":"locality","name":"Mardenhorster Feld","is_bridge":false,"display_class":"settlement","source_url":"https://www.openstreetmap.org/node/3833108690","riverbank_distance_m":null}},{"type":"Feature","id":"node/3833108691","geometry":{"type":"Point","coordinates":[6.4331764,51.8178288]},"properties":{"source":"osm","query_name":"06-settlements","osm_type":"node","osm_id":3833108691,"category":"settlement","subtype":"locality","name":"Mathkrüss","is_bridge":false,"display_class":"settlement","source_url":"https://www.openstreetmap.org/node/3833108691","riverbank_distance_m":null}},{"type":"Feature","id":"node/3833108692","geometry":{"type":"Point","coordinates":[6.4638582,51.8086481]},"properties":{"source":"osm","query_name":"06-settlements","osm_type":"node","osm_id":3833108692,"category":"settlement","subtype":"locality","name":"Neue Kamp","is_bridge":false,"display_class":"settlement","source_url":"https://www.openstreetmap.org/node/3833108692","riverbank_distance_m":null}},{"type":"Feature","id":"node/3833108693","geometry":{"type":"Point","coordinates":[6.4186549,51.8154795]},"properties":{"source":"osm","query_name":"06-settlements","osm_type":"node","osm_id":3833108693,"category":"settlement","subtype":"locality","name":"Ob de Haack","is_bridge":false,"display_class":"settlement","source_url":"https://www.openstreetmap.org/node/3833108693","riverbank_distance_m":null}},{"type":"Feature","id":"node/3833108694","geometry":{"type":"Point","coordinates":[6.418441,51.8139642]},"properties":{"source":"osm","query_name":"06-settlements","osm_type":"node","osm_id":3833108694,"category":"settlement","subtype":"locality","name":"Papenbusch","is_bridge":false,"display_class":"settlement","source_url":"https://www.openstreetmap.org/node/3833108694","riverbank_distance_m":null}},{"type":"Feature","id":"node/3833108695","geometry":{"type":"Point","coordinates":[6.4238762,51.8120276]},"properties":{"source":"osm","query_name":"06-settlements","osm_type":"node","osm_id":3833108695,"category":"settlement","subtype":"locality","name":"Papot","is_bridge":false,"display_class":"settlement","source_url":"https://www.openstreetmap.org/node/3833108695","riverbank_distance_m":null}},{"type":"Feature","id":"node/3833108696","geometry":{"type":"Point","coordinates":[6.4224279,51.8118455]},"properties":{"source":"osm","query_name":"06-settlements","osm_type":"node","osm_id":3833108696,"category":"settlement","subtype":"locality","name":"Schmitjesheide","is_bridge":false,"display_class":"settlement","source_url":"https://www.openstreetmap.org/node/3833108696","riverbank_distance_m":null}},{"type":"Feature","id":"node/3833108697","geometry":{"type":"Point","coordinates":[6.4373246,51.8141894]},"properties":{"source":"osm","query_name":"06-settlements","osm_type":"node","osm_id":3833108697,"category":"settlement","subtype":"locality","name":"Spickstück","is_bridge":false,"display_class":"settlement","source_url":"https://www.openstreetmap.org/node/3833108697","riverbank_distance_m":null}},{"type":"Feature","id":"node/3833108698","geometry":{"type":"Point","coordinates":[6.4340368,51.8025417]},"properties":{"source":"osm","query_name":"06-settlements","osm_type":"node","osm_id":3833108698,"category":"settlement","subtype":"locality","name":"Torfvehn","is_bridge":false,"display_class":"settlement","source_url":"https://www.openstreetmap.org/node/3833108698","riverbank_distance_m":null}},{"type":"Feature","id":"node/3833108699","geometry":{"type":"Point","coordinates":[6.4614395,51.809949]},"properties":{"source":"osm","query_name":"06-settlements","osm_type":"node","osm_id":3833108699,"category":"settlement","subtype":"locality","name":"Trosten Kamp","is_bridge":false,"display_class":"settlement","source_url":"https://www.openstreetmap.org/node/3833108699","riverbank_distance_m":null}},{"type":"Feature","id":"node/3833108700","geometry":{"type":"Point","coordinates":[6.4455933,51.8102421]},"properties":{"source":"osm","query_name":"06-settlements","osm_type":"node","osm_id":3833108700,"category":"settlement","subtype":"locality","name":"Uhlenburg","is_bridge":false,"display_class":"settlement","source_url":"https://www.openstreetmap.org/node/3833108700","riverbank_distance_m":null}},{"type":"Feature","id":"node/3833108701","geometry":{"type":"Point","coordinates":[6.4367394,51.8071969]},"properties":{"source":"osm","query_name":"06-settlements","osm_type":"node","osm_id":3833108701,"category":"settlement","subtype":"locality","name":"Unterm Klötges","is_bridge":false,"display_class":"settlement","source_url":"https://www.openstreetmap.org/node/3833108701","riverbank_distance_m":null}},{"type":"Feature","id":"node/3833108702","geometry":{"type":"Point","coordinates":[6.4305717,51.8109515]},"properties":{"source":"osm","query_name":"06-settlements","osm_type":"node","osm_id":3833108702,"category":"settlement","subtype":"locality","name":"Vierboom","is_bridge":false,"display_class":"settlement","source_url":"https://www.openstreetmap.org/node/3833108702","riverbank_distance_m":null}},{"type":"Feature","id":"node/3833108703","geometry":{"type":"Point","coordinates":[6.4319621,51.8157395]},"properties":{"source":"osm","query_name":"06-settlements","osm_type":"node","osm_id":3833108703,"category":"settlement","subtype":"locality","name":"Winkels","is_bridge":false,"display_class":"settlement","source_url":"https://www.openstreetmap.org/node/3833108703","riverbank_distance_m":null}},{"type":"Feature","id":"node/3833120469","geometry":{"type":"Point","coordinates":[6.462775,51.8224039]},"properties":{"source":"osm","query_name":"06-settlements","osm_type":"node","osm_id":3833120469,"category":"settlement","subtype":"locality","name":"Bruchschläge","is_bridge":false,"display_class":"settlement","source_url":"https://www.openstreetmap.org/node/3833120469","riverbank_distance_m":null}},{"type":"Feature","id":"node/3833120473","geometry":{"type":"Point","coordinates":[6.458211,51.8185852]},"properties":{"source":"osm","query_name":"06-settlements","osm_type":"node","osm_id":3833120473,"category":"settlement","subtype":"locality","name":"Finkenbusch","is_bridge":false,"display_class":"settlement","source_url":"https://www.openstreetmap.org/node/3833120473","riverbank_distance_m":null}},{"type":"Feature","id":"node/3833120477","geometry":{"type":"Point","coordinates":[6.4664842,51.8212432]},"properties":{"source":"osm","query_name":"06-settlements","osm_type":"node","osm_id":3833120477,"category":"settlement","subtype":"locality","name":"Häringshorst","is_bridge":false,"display_class":"settlement","source_url":"https://www.openstreetmap.org/node/3833120477","riverbank_distance_m":null}},{"type":"Feature","id":"node/3833120479","geometry":{"type":"Point","coordinates":[6.4652816,51.8233571]},"properties":{"source":"osm","query_name":"06-settlements","osm_type":"node","osm_id":3833120479,"category":"settlement","subtype":"locality","name":"Mövesfeld","is_bridge":false,"display_class":"settlement","source_url":"https://www.openstreetmap.org/node/3833120479","riverbank_distance_m":null}},{"type":"Feature","id":"node/462197105","geometry":{"type":"Point","coordinates":[6.5096905,51.8198006]},"properties":{"source":"osm","query_name":"06-settlements","osm_type":"node","osm_id":462197105,"category":"settlement","subtype":"village","name":"Werth","is_bridge":false,"display_class":"settlement","source_url":"https://www.openstreetmap.org/node/462197105","riverbank_distance_m":null}},{"type":"Feature","id":"node/656179900","geometry":{"type":"Point","coordinates":[6.4938994,51.831381]},"properties":{"source":"osm","query_name":"06-settlements","osm_type":"node","osm_id":656179900,"category":"settlement","subtype":"hamlet","name":"Schüttenstein","is_bridge":false,"display_class":"settlement","source_url":"https://www.openstreetmap.org/node/656179900","riverbank_distance_m":null}},{"type":"Feature","id":"node/3829565899","geometry":{"type":"Point","coordinates":[6.4965518,51.831027]},"properties":{"source":"osm","query_name":"06-settlements","osm_type":"node","osm_id":3829565899,"category":"settlement","subtype":"locality","name":"Holtmate","is_bridge":false,"display_class":"settlement","source_url":"https://www.openstreetmap.org/node/3829565899","riverbank_distance_m":null}},{"type":"Feature","id":"node/3829565900","geometry":{"type":"Point","coordinates":[6.5023593,51.8299103]},"properties":{"source":"osm","query_name":"06-settlements","osm_type":"node","osm_id":3829565900,"category":"settlement","subtype":"locality","name":"Müllerskamp","is_bridge":false,"display_class":"settlement","source_url":"https://www.openstreetmap.org/node/3829565900","riverbank_distance_m":null}},{"type":"Feature","id":"node/3829565901","geometry":{"type":"Point","coordinates":[6.4938495,51.8324354]},"properties":{"source":"osm","query_name":"06-settlements","osm_type":"node","osm_id":3829565901,"category":"settlement","subtype":"locality","name":"Olde Wieske","is_bridge":false,"display_class":"settlement","source_url":"https://www.openstreetmap.org/node/3829565901","riverbank_distance_m":null}},{"type":"Feature","id":"node/3829565904","geometry":{"type":"Point","coordinates":[6.5064341,51.8296808]},"properties":{"source":"osm","query_name":"06-settlements","osm_type":"node","osm_id":3829565904,"category":"settlement","subtype":"locality","name":"Sternberg","is_bridge":false,"display_class":"settlement","source_url":"https://www.openstreetmap.org/node/3829565904","riverbank_distance_m":null}},{"type":"Feature","id":"node/3829565905","geometry":{"type":"Point","coordinates":[6.4912448,51.8333111]},"properties":{"source":"osm","query_name":"06-settlements","osm_type":"node","osm_id":3829565905,"category":"settlement","subtype":"locality","name":"Webersweiden","is_bridge":false,"display_class":"settlement","source_url":"https://www.openstreetmap.org/node/3829565905","riverbank_distance_m":null}},{"type":"Feature","id":"node/3829854098","geometry":{"type":"Point","coordinates":[6.4977137,51.8238518]},"properties":{"source":"osm","query_name":"06-settlements","osm_type":"node","osm_id":3829854098,"category":"settlement","subtype":"locality","name":"Am Legen Weidendeich","is_bridge":false,"display_class":"settlement","source_url":"https://www.openstreetmap.org/node/3829854098","riverbank_distance_m":null}},{"type":"Feature","id":"node/3829854099","geometry":{"type":"Point","coordinates":[6.5028448,51.8194273]},"properties":{"source":"osm","query_name":"06-settlements","osm_type":"node","osm_id":3829854099,"category":"settlement","subtype":"locality","name":"Barghorst","is_bridge":false,"display_class":"settlement","source_url":"https://www.openstreetmap.org/node/3829854099","riverbank_distance_m":null}},{"type":"Feature","id":"node/3829854100","geometry":{"type":"Point","coordinates":[6.4895827,51.8266029]},"properties":{"source":"osm","query_name":"06-settlements","osm_type":"node","osm_id":3829854100,"category":"settlement","subtype":"locality","name":"Die neue Weide","is_bridge":false,"display_class":"settlement","source_url":"https://www.openstreetmap.org/node/3829854100","riverbank_distance_m":null}},{"type":"Feature","id":"node/3829854101","geometry":{"type":"Point","coordinates":[6.486632,51.8287869]},"properties":{"source":"osm","query_name":"06-settlements","osm_type":"node","osm_id":3829854101,"category":"settlement","subtype":"locality","name":"Gemeinde Bruch","is_bridge":false,"display_class":"settlement","source_url":"https://www.openstreetmap.org/node/3829854101","riverbank_distance_m":null}},{"type":"Feature","id":"node/3829854102","geometry":{"type":"Point","coordinates":[6.4825062,51.8277731]},"properties":{"source":"osm","query_name":"06-settlements","osm_type":"node","osm_id":3829854102,"category":"settlement","subtype":"locality","name":"Hakenbruch","is_bridge":false,"display_class":"settlement","source_url":"https://www.openstreetmap.org/node/3829854102","riverbank_distance_m":null}},{"type":"Feature","id":"node/3829854104","geometry":{"type":"Point","coordinates":[6.4907945,51.8276847]},"properties":{"source":"osm","query_name":"06-settlements","osm_type":"node","osm_id":3829854104,"category":"settlement","subtype":"locality","name":"Nullweide","is_bridge":false,"display_class":"settlement","source_url":"https://www.openstreetmap.org/node/3829854104","riverbank_distance_m":null}},{"type":"Feature","id":"node/3829854107","geometry":{"type":"Point","coordinates":[6.4966835,51.8217105]},"properties":{"source":"osm","query_name":"06-settlements","osm_type":"node","osm_id":3829854107,"category":"settlement","subtype":"locality","name":"Teppelweiden","is_bridge":false,"display_class":"settlement","source_url":"https://www.openstreetmap.org/node/3829854107","riverbank_distance_m":null}},{"type":"Feature","id":"node/3829854108","geometry":{"type":"Point","coordinates":[6.4950176,51.8264112]},"properties":{"source":"osm","query_name":"06-settlements","osm_type":"node","osm_id":3829854108,"category":"settlement","subtype":"locality","name":"Unterm Schütten","is_bridge":false,"display_class":"settlement","source_url":"https://www.openstreetmap.org/node/3829854108","riverbank_distance_m":null}},{"type":"Feature","id":"node/3831489394","geometry":{"type":"Point","coordinates":[6.5250808,51.8061975]},"properties":{"source":"osm","query_name":"06-settlements","osm_type":"node","osm_id":3831489394,"category":"settlement","subtype":"locality","name":"Alexanderlust","is_bridge":false,"display_class":"settlement","source_url":"https://www.openstreetmap.org/node/3831489394","riverbank_distance_m":null}},{"type":"Feature","id":"node/3831489396","geometry":{"type":"Point","coordinates":[6.5202812,51.8109685]},"properties":{"source":"osm","query_name":"06-settlements","osm_type":"node","osm_id":3831489396,"category":"settlement","subtype":"locality","name":"Am Siwold","is_bridge":false,"display_class":"settlement","source_url":"https://www.openstreetmap.org/node/3831489396","riverbank_distance_m":null}},{"type":"Feature","id":"node/3831489397","geometry":{"type":"Point","coordinates":[6.4991178,51.8184818]},"properties":{"source":"osm","query_name":"06-settlements","osm_type":"node","osm_id":3831489397,"category":"settlement","subtype":"locality","name":"Am Zehntwege","is_bridge":false,"display_class":"settlement","source_url":"https://www.openstreetmap.org/node/3831489397","riverbank_distance_m":null}},{"type":"Feature","id":"node/3831489398","geometry":{"type":"Point","coordinates":[6.4893027,51.8055117]},"properties":{"source":"osm","query_name":"06-settlements","osm_type":"node","osm_id":3831489398,"category":"settlement","subtype":"locality","name":"An der Kalforter Heide","is_bridge":false,"display_class":"settlement","source_url":"https://www.openstreetmap.org/node/3831489398","riverbank_distance_m":null}},{"type":"Feature","id":"node/3831489399","geometry":{"type":"Point","coordinates":[6.510441,51.8315801]},"properties":{"source":"osm","query_name":"06-settlements","osm_type":"node","osm_id":3831489399,"category":"settlement","subtype":"locality","name":"Auf der Haar","is_bridge":false,"display_class":"settlement","source_url":"https://www.openstreetmap.org/node/3831489399","riverbank_distance_m":null}},{"type":"Feature","id":"node/3831489400","geometry":{"type":"Point","coordinates":[6.470535,51.8169793]},"properties":{"source":"osm","query_name":"06-settlements","osm_type":"node","osm_id":3831489400,"category":"settlement","subtype":"locality","name":"Auf´m Kirchhof","is_bridge":false,"display_class":"settlement","source_url":"https://www.openstreetmap.org/node/3831489400","riverbank_distance_m":null}},{"type":"Feature","id":"node/3831489401","geometry":{"type":"Point","coordinates":[6.5075846,51.8105334]},"properties":{"source":"osm","query_name":"06-settlements","osm_type":"node","osm_id":3831489401,"category":"settlement","subtype":"locality","name":"Beim Finkenhof","is_bridge":false,"display_class":"settlement","source_url":"https://www.openstreetmap.org/node/3831489401","riverbank_distance_m":null}},{"type":"Feature","id":"node/3831489402","geometry":{"type":"Point","coordinates":[6.503552,51.8163018]},"properties":{"source":"osm","query_name":"06-settlements","osm_type":"node","osm_id":3831489402,"category":"settlement","subtype":"locality","name":"Besmoderskamp","is_bridge":false,"display_class":"settlement","source_url":"https://www.openstreetmap.org/node/3831489402","riverbank_distance_m":null}},{"type":"Feature","id":"node/3831489403","geometry":{"type":"Point","coordinates":[6.4743751,51.8119804]},"properties":{"source":"osm","query_name":"06-settlements","osm_type":"node","osm_id":3831489403,"category":"settlement","subtype":"locality","name":"Bierbaumskamp","is_bridge":false,"display_class":"settlement","source_url":"https://www.openstreetmap.org/node/3831489403","riverbank_distance_m":null}},{"type":"Feature","id":"node/3831489407","geometry":{"type":"Point","coordinates":[6.4931552,51.820302]},"properties":{"source":"osm","query_name":"06-settlements","osm_type":"node","osm_id":3831489407,"category":"settlement","subtype":"locality","name":"Buschdicksweiden","is_bridge":false,"display_class":"settlement","source_url":"https://www.openstreetmap.org/node/3831489407","riverbank_distance_m":null}},{"type":"Feature","id":"node/3831489409","geometry":{"type":"Point","coordinates":[6.4888533,51.8202464]},"properties":{"source":"osm","query_name":"06-settlements","osm_type":"node","osm_id":3831489409,"category":"settlement","subtype":"locality","name":"Buschmannshof","is_bridge":false,"display_class":"settlement","source_url":"https://www.openstreetmap.org/node/3831489409","riverbank_distance_m":null}},{"type":"Feature","id":"node/3831489410","geometry":{"type":"Point","coordinates":[6.5178811,51.8098018]},"properties":{"source":"osm","query_name":"06-settlements","osm_type":"node","osm_id":3831489410,"category":"settlement","subtype":"locality","name":"Das Feld","is_bridge":false,"display_class":"settlement","source_url":"https://www.openstreetmap.org/node/3831489410","riverbank_distance_m":null}},{"type":"Feature","id":"node/3831489411","geometry":{"type":"Point","coordinates":[6.4718751,51.8131895]},"properties":{"source":"osm","query_name":"06-settlements","osm_type":"node","osm_id":3831489411,"category":"settlement","subtype":"locality","name":"Das Feld","is_bridge":false,"display_class":"settlement","source_url":"https://www.openstreetmap.org/node/3831489411","riverbank_distance_m":null}},{"type":"Feature","id":"node/3831489412","geometry":{"type":"Point","coordinates":[6.4755855,51.8014778]},"properties":{"source":"osm","query_name":"06-settlements","osm_type":"node","osm_id":3831489412,"category":"settlement","subtype":"locality","name":"Das Liesbruch","is_bridge":false,"display_class":"settlement","source_url":"https://www.openstreetmap.org/node/3831489412","riverbank_distance_m":null}},{"type":"Feature","id":"node/3831489413","geometry":{"type":"Point","coordinates":[6.4845954,51.8239758]},"properties":{"source":"osm","query_name":"06-settlements","osm_type":"node","osm_id":3831489413,"category":"settlement","subtype":"locality","name":"Der Busch","is_bridge":false,"display_class":"settlement","source_url":"https://www.openstreetmap.org/node/3831489413","riverbank_distance_m":null}},{"type":"Feature","id":"node/3831489414","geometry":{"type":"Point","coordinates":[6.5062371,51.8150316]},"properties":{"source":"osm","query_name":"06-settlements","osm_type":"node","osm_id":3831489414,"category":"settlement","subtype":"locality","name":"Der Morgen","is_bridge":false,"display_class":"settlement","source_url":"https://www.openstreetmap.org/node/3831489414","riverbank_distance_m":null}},{"type":"Feature","id":"node/3831489415","geometry":{"type":"Point","coordinates":[6.4913419,51.8028721]},"properties":{"source":"osm","query_name":"06-settlements","osm_type":"node","osm_id":3831489415,"category":"settlement","subtype":"locality","name":"Der Penningskamp","is_bridge":false,"display_class":"settlement","source_url":"https://www.openstreetmap.org/node/3831489415","riverbank_distance_m":null}},{"type":"Feature","id":"node/3831489416","geometry":{"type":"Point","coordinates":[6.5026439,51.8152514]},"properties":{"source":"osm","query_name":"06-settlements","osm_type":"node","osm_id":3831489416,"category":"settlement","subtype":"locality","name":"Der Schop","is_bridge":false,"display_class":"settlement","source_url":"https://www.openstreetmap.org/node/3831489416","riverbank_distance_m":null}},{"type":"Feature","id":"node/3831489417","geometry":{"type":"Point","coordinates":[6.4893846,51.8074625]},"properties":{"source":"osm","query_name":"06-settlements","osm_type":"node","osm_id":3831489417,"category":"settlement","subtype":"locality","name":"Die Hüffkes","is_bridge":false,"display_class":"settlement","source_url":"https://www.openstreetmap.org/node/3831489417","riverbank_distance_m":null}},{"type":"Feature","id":"node/3831489418","geometry":{"type":"Point","coordinates":[6.4927349,51.8083723]},"properties":{"source":"osm","query_name":"06-settlements","osm_type":"node","osm_id":3831489418,"category":"settlement","subtype":"locality","name":"Die Lange","is_bridge":false,"display_class":"settlement","source_url":"https://www.openstreetmap.org/node/3831489418","riverbank_distance_m":null}},{"type":"Feature","id":"node/3831489419","geometry":{"type":"Point","coordinates":[6.5179821,51.8120172]},"properties":{"source":"osm","query_name":"06-settlements","osm_type":"node","osm_id":3831489419,"category":"settlement","subtype":"locality","name":"Die Neue Weide","is_bridge":false,"display_class":"settlement","source_url":"https://www.openstreetmap.org/node/3831489419","riverbank_distance_m":null}},{"type":"Feature","id":"node/3831489421","geometry":{"type":"Point","coordinates":[6.4968938,51.8090092]},"properties":{"source":"osm","query_name":"06-settlements","osm_type":"node","osm_id":3831489421,"category":"settlement","subtype":"locality","name":"Die große lange Weide","is_bridge":false,"display_class":"settlement","source_url":"https://www.openstreetmap.org/node/3831489421","riverbank_distance_m":null}},{"type":"Feature","id":"node/3831489422","geometry":{"type":"Point","coordinates":[6.4818148,51.8218604]},"properties":{"source":"osm","query_name":"06-settlements","osm_type":"node","osm_id":3831489422,"category":"settlement","subtype":"locality","name":"Dorukamp","is_bridge":false,"display_class":"settlement","source_url":"https://www.openstreetmap.org/node/3831489422","riverbank_distance_m":null}},{"type":"Feature","id":"node/3831489423","geometry":{"type":"Point","coordinates":[6.5086194,51.8152717]},"properties":{"source":"osm","query_name":"06-settlements","osm_type":"node","osm_id":3831489423,"category":"settlement","subtype":"locality","name":"Füllenkamp","is_bridge":false,"display_class":"settlement","source_url":"https://www.openstreetmap.org/node/3831489423","riverbank_distance_m":null}},{"type":"Feature","id":"node/3831489424","geometry":{"type":"Point","coordinates":[6.5151174,51.8134255]},"properties":{"source":"osm","query_name":"06-settlements","osm_type":"node","osm_id":3831489424,"category":"settlement","subtype":"locality","name":"Glockenkamp","is_bridge":false,"display_class":"settlement","source_url":"https://www.openstreetmap.org/node/3831489424","riverbank_distance_m":null}},{"type":"Feature","id":"node/3831489425","geometry":{"type":"Point","coordinates":[6.4755408,51.811693]},"properties":{"source":"osm","query_name":"06-settlements","osm_type":"node","osm_id":3831489425,"category":"settlement","subtype":"locality","name":"Große Lohr","is_bridge":false,"display_class":"settlement","source_url":"https://www.openstreetmap.org/node/3831489425","riverbank_distance_m":null}},{"type":"Feature","id":"node/3831489427","geometry":{"type":"Point","coordinates":[6.4776073,51.8134635]},"properties":{"source":"osm","query_name":"06-settlements","osm_type":"node","osm_id":3831489427,"category":"settlement","subtype":"locality","name":"Hartkamp","is_bridge":false,"display_class":"settlement","source_url":"https://www.openstreetmap.org/node/3831489427","riverbank_distance_m":null}},{"type":"Feature","id":"node/3831489428","geometry":{"type":"Point","coordinates":[6.4847893,51.8041982]},"properties":{"source":"osm","query_name":"06-settlements","osm_type":"node","osm_id":3831489428,"category":"settlement","subtype":"locality","name":"Heide","is_bridge":false,"display_class":"settlement","source_url":"https://www.openstreetmap.org/node/3831489428","riverbank_distance_m":null}},{"type":"Feature","id":"node/3831489430","geometry":{"type":"Point","coordinates":[6.4741949,51.8169203]},"properties":{"source":"osm","query_name":"06-settlements","osm_type":"node","osm_id":3831489430,"category":"settlement","subtype":"locality","name":"Hohe Feld","is_bridge":false,"display_class":"settlement","source_url":"https://www.openstreetmap.org/node/3831489430","riverbank_distance_m":null}},{"type":"Feature","id":"node/3831489431","geometry":{"type":"Point","coordinates":[6.5206456,51.8117856]},"properties":{"source":"osm","query_name":"06-settlements","osm_type":"node","osm_id":3831489431,"category":"settlement","subtype":"locality","name":"Hoher Silwold","is_bridge":false,"display_class":"settlement","source_url":"https://www.openstreetmap.org/node/3831489431","riverbank_distance_m":null}},{"type":"Feature","id":"node/3831489432","geometry":{"type":"Point","coordinates":[6.5161049,51.8160394]},"properties":{"source":"osm","query_name":"06-settlements","osm_type":"node","osm_id":3831489432,"category":"settlement","subtype":"locality","name":"In den Holtissels","is_bridge":false,"display_class":"settlement","source_url":"https://www.openstreetmap.org/node/3831489432","riverbank_distance_m":null}},{"type":"Feature","id":"node/3831489435","geometry":{"type":"Point","coordinates":[6.4917447,51.8180069]},"properties":{"source":"osm","query_name":"06-settlements","osm_type":"node","osm_id":3831489435,"category":"settlement","subtype":"locality","name":"In der Pötterei","is_bridge":false,"display_class":"settlement","source_url":"https://www.openstreetmap.org/node/3831489435","riverbank_distance_m":null}},{"type":"Feature","id":"node/3831489436","geometry":{"type":"Point","coordinates":[6.5103246,51.8162425]},"properties":{"source":"osm","query_name":"06-settlements","osm_type":"node","osm_id":3831489436,"category":"settlement","subtype":"locality","name":"Kalberweiden","is_bridge":false,"display_class":"settlement","source_url":"https://www.openstreetmap.org/node/3831489436","riverbank_distance_m":null}},{"type":"Feature","id":"node/3831489437","geometry":{"type":"Point","coordinates":[6.4835321,51.80505]},"properties":{"source":"osm","query_name":"06-settlements","osm_type":"node","osm_id":3831489437,"category":"settlement","subtype":"locality","name":"Kalforter","is_bridge":false,"display_class":"settlement","source_url":"https://www.openstreetmap.org/node/3831489437","riverbank_distance_m":null}},{"type":"Feature","id":"node/3831489438","geometry":{"type":"Point","coordinates":[6.4811525,51.8117035]},"properties":{"source":"osm","query_name":"06-settlements","osm_type":"node","osm_id":3831489438,"category":"settlement","subtype":"locality","name":"Kalforterheide","is_bridge":false,"display_class":"settlement","source_url":"https://www.openstreetmap.org/node/3831489438","riverbank_distance_m":null}},{"type":"Feature","id":"node/3831489440","geometry":{"type":"Point","coordinates":[6.4689706,51.8033556]},"properties":{"source":"osm","query_name":"06-settlements","osm_type":"node","osm_id":3831489440,"category":"settlement","subtype":"locality","name":"Kattenhorst","is_bridge":false,"display_class":"settlement","source_url":"https://www.openstreetmap.org/node/3831489440","riverbank_distance_m":null}},{"type":"Feature","id":"node/3831489442","geometry":{"type":"Point","coordinates":[6.4854333,51.8189332]},"properties":{"source":"osm","query_name":"06-settlements","osm_type":"node","osm_id":3831489442,"category":"settlement","subtype":"locality","name":"Kirchen Schläge","is_bridge":false,"display_class":"settlement","source_url":"https://www.openstreetmap.org/node/3831489442","riverbank_distance_m":null}},{"type":"Feature","id":"node/3831489444","geometry":{"type":"Point","coordinates":[6.5123073,51.8101801]},"properties":{"source":"osm","query_name":"06-settlements","osm_type":"node","osm_id":3831489444,"category":"settlement","subtype":"locality","name":"Koepenland","is_bridge":false,"display_class":"settlement","source_url":"https://www.openstreetmap.org/node/3831489444","riverbank_distance_m":null}},{"type":"Feature","id":"node/3831489445","geometry":{"type":"Point","coordinates":[6.524933,51.8117511]},"properties":{"source":"osm","query_name":"06-settlements","osm_type":"node","osm_id":3831489445,"category":"settlement","subtype":"locality","name":"Krähen Busch","is_bridge":false,"display_class":"settlement","source_url":"https://www.openstreetmap.org/node/3831489445","riverbank_distance_m":null}},{"type":"Feature","id":"node/3831489446","geometry":{"type":"Point","coordinates":[6.5045162,51.8107061]},"properties":{"source":"osm","query_name":"06-settlements","osm_type":"node","osm_id":3831489446,"category":"settlement","subtype":"locality","name":"Köpenweide","is_bridge":false,"display_class":"settlement","source_url":"https://www.openstreetmap.org/node/3831489446","riverbank_distance_m":null}},{"type":"Feature","id":"node/3831489447","geometry":{"type":"Point","coordinates":[6.5083304,51.8158435]},"properties":{"source":"osm","query_name":"06-settlements","osm_type":"node","osm_id":3831489447,"category":"settlement","subtype":"locality","name":"Kösterskamp","is_bridge":false,"display_class":"settlement","source_url":"https://www.openstreetmap.org/node/3831489447","riverbank_distance_m":null}},{"type":"Feature","id":"node/3831489448","geometry":{"type":"Point","coordinates":[6.5079643,51.8167487]},"properties":{"source":"osm","query_name":"06-settlements","osm_type":"node","osm_id":3831489448,"category":"settlement","subtype":"locality","name":"Mitteldonk","is_bridge":false,"display_class":"settlement","source_url":"https://www.openstreetmap.org/node/3831489448","riverbank_distance_m":null}},{"type":"Feature","id":"node/3831489449","geometry":{"type":"Point","coordinates":[6.5229403,51.807201]},"properties":{"source":"osm","query_name":"06-settlements","osm_type":"node","osm_id":3831489449,"category":"settlement","subtype":"locality","name":"Ob de Horst","is_bridge":false,"display_class":"settlement","source_url":"https://www.openstreetmap.org/node/3831489449","riverbank_distance_m":null}},{"type":"Feature","id":"node/3831489450","geometry":{"type":"Point","coordinates":[6.475194,51.8127488]},"properties":{"source":"osm","query_name":"06-settlements","osm_type":"node","osm_id":3831489450,"category":"settlement","subtype":"locality","name":"Pattkamp","is_bridge":false,"display_class":"settlement","source_url":"https://www.openstreetmap.org/node/3831489450","riverbank_distance_m":null}},{"type":"Feature","id":"node/3831489451","geometry":{"type":"Point","coordinates":[6.5239899,51.8053696]},"properties":{"source":"osm","query_name":"06-settlements","osm_type":"node","osm_id":3831489451,"category":"settlement","subtype":"locality","name":"Pote Kamp","is_bridge":false,"display_class":"settlement","source_url":"https://www.openstreetmap.org/node/3831489451","riverbank_distance_m":null}},{"type":"Feature","id":"node/3831489452","geometry":{"type":"Point","coordinates":[6.4787633,51.8142556]},"properties":{"source":"osm","query_name":"06-settlements","osm_type":"node","osm_id":3831489452,"category":"settlement","subtype":"locality","name":"Scheunkamp","is_bridge":false,"display_class":"settlement","source_url":"https://www.openstreetmap.org/node/3831489452","riverbank_distance_m":null}},{"type":"Feature","id":"node/3831489453","geometry":{"type":"Point","coordinates":[6.5133062,51.8149025]},"properties":{"source":"osm","query_name":"06-settlements","osm_type":"node","osm_id":3831489453,"category":"settlement","subtype":"locality","name":"Sponskamp","is_bridge":false,"display_class":"settlement","source_url":"https://www.openstreetmap.org/node/3831489453","riverbank_distance_m":null}},{"type":"Feature","id":"node/3833074615","geometry":{"type":"Point","coordinates":[6.5281431,51.8082736]},"properties":{"source":"osm","query_name":"06-settlements","osm_type":"node","osm_id":3833074615,"category":"settlement","subtype":"locality","name":"Ob de Grat","is_bridge":false,"display_class":"settlement","source_url":"https://www.openstreetmap.org/node/3833074615","riverbank_distance_m":null}},{"type":"Feature","id":"node/3833120468","geometry":{"type":"Point","coordinates":[6.4805192,51.8327224]},"properties":{"source":"osm","query_name":"06-settlements","osm_type":"node","osm_id":3833120468,"category":"settlement","subtype":"locality","name":"Auf der Kamp","is_bridge":false,"display_class":"settlement","source_url":"https://www.openstreetmap.org/node/3833120468","riverbank_distance_m":null}},{"type":"Feature","id":"node/3833120470","geometry":{"type":"Point","coordinates":[6.4693707,51.8341581]},"properties":{"source":"osm","query_name":"06-settlements","osm_type":"node","osm_id":3833120470,"category":"settlement","subtype":"locality","name":"Der Gänsepoll","is_bridge":false,"display_class":"settlement","source_url":"https://www.openstreetmap.org/node/3833120470","riverbank_distance_m":null}},{"type":"Feature","id":"node/3833120471","geometry":{"type":"Point","coordinates":[6.4794636,51.831956]},"properties":{"source":"osm","query_name":"06-settlements","osm_type":"node","osm_id":3833120471,"category":"settlement","subtype":"locality","name":"Die Jakobs Schläge","is_bridge":false,"display_class":"settlement","source_url":"https://www.openstreetmap.org/node/3833120471","riverbank_distance_m":null}},{"type":"Feature","id":"node/3833120472","geometry":{"type":"Point","coordinates":[6.4761483,51.8244653]},"properties":{"source":"osm","query_name":"06-settlements","osm_type":"node","osm_id":3833120472,"category":"settlement","subtype":"locality","name":"Dierte","is_bridge":false,"display_class":"settlement","source_url":"https://www.openstreetmap.org/node/3833120472","riverbank_distance_m":null}},{"type":"Feature","id":"node/3833120474","geometry":{"type":"Point","coordinates":[6.4693047,51.8247777]},"properties":{"source":"osm","query_name":"06-settlements","osm_type":"node","osm_id":3833120474,"category":"settlement","subtype":"locality","name":"Furthen","is_bridge":false,"display_class":"settlement","source_url":"https://www.openstreetmap.org/node/3833120474","riverbank_distance_m":null}},{"type":"Feature","id":"node/3833120475","geometry":{"type":"Point","coordinates":[6.4728886,51.8240146]},"properties":{"source":"osm","query_name":"06-settlements","osm_type":"node","osm_id":3833120475,"category":"settlement","subtype":"locality","name":"Furth´sche Weiden","is_bridge":false,"display_class":"settlement","source_url":"https://www.openstreetmap.org/node/3833120475","riverbank_distance_m":null}},{"type":"Feature","id":"node/3833120476","geometry":{"type":"Point","coordinates":[6.4873103,51.827872]},"properties":{"source":"osm","query_name":"06-settlements","osm_type":"node","osm_id":3833120476,"category":"settlement","subtype":"locality","name":"Hakenbruch","is_bridge":false,"display_class":"settlement","source_url":"https://www.openstreetmap.org/node/3833120476","riverbank_distance_m":null}},{"type":"Feature","id":"node/3833120478","geometry":{"type":"Point","coordinates":[6.4717848,51.8212589]},"properties":{"source":"osm","query_name":"06-settlements","osm_type":"node","osm_id":3833120478,"category":"settlement","subtype":"locality","name":"Kellerbruch","is_bridge":false,"display_class":"settlement","source_url":"https://www.openstreetmap.org/node/3833120478","riverbank_distance_m":null}},{"type":"Feature","id":"node/3833120480","geometry":{"type":"Point","coordinates":[6.475122,51.8288527]},"properties":{"source":"osm","query_name":"06-settlements","osm_type":"node","osm_id":3833120480,"category":"settlement","subtype":"locality","name":"Nonnen mathe","is_bridge":false,"display_class":"settlement","source_url":"https://www.openstreetmap.org/node/3833120480","riverbank_distance_m":null}},{"type":"Feature","id":"node/3833169705","geometry":{"type":"Point","coordinates":[6.5357223,51.8334553]},"properties":{"source":"osm","query_name":"06-settlements","osm_type":"node","osm_id":3833169705,"category":"settlement","subtype":"locality","name":"Auf dem Esch","is_bridge":false,"display_class":"settlement","source_url":"https://www.openstreetmap.org/node/3833169705","riverbank_distance_m":null}},{"type":"Feature","id":"node/3833169706","geometry":{"type":"Point","coordinates":[6.523428,51.8292471]},"properties":{"source":"osm","query_name":"06-settlements","osm_type":"node","osm_id":3833169706,"category":"settlement","subtype":"locality","name":"Auf der Breide","is_bridge":false,"display_class":"settlement","source_url":"https://www.openstreetmap.org/node/3833169706","riverbank_distance_m":null}},{"type":"Feature","id":"node/3833169709","geometry":{"type":"Point","coordinates":[6.5304931,51.8326018]},"properties":{"source":"osm","query_name":"06-settlements","osm_type":"node","osm_id":3833169709,"category":"settlement","subtype":"locality","name":"Der Mettling Esch","is_bridge":false,"display_class":"settlement","source_url":"https://www.openstreetmap.org/node/3833169709","riverbank_distance_m":null}},{"type":"Feature","id":"node/3833169710","geometry":{"type":"Point","coordinates":[6.5246418,51.8317302]},"properties":{"source":"osm","query_name":"06-settlements","osm_type":"node","osm_id":3833169710,"category":"settlement","subtype":"locality","name":"Der Willing Esch","is_bridge":false,"display_class":"settlement","source_url":"https://www.openstreetmap.org/node/3833169710","riverbank_distance_m":null}},{"type":"Feature","id":"node/3833169716","geometry":{"type":"Point","coordinates":[6.5275098,51.8296389]},"properties":{"source":"osm","query_name":"06-settlements","osm_type":"node","osm_id":3833169716,"category":"settlement","subtype":"locality","name":"Otten Kamp","is_bridge":false,"display_class":"settlement","source_url":"https://www.openstreetmap.org/node/3833169716","riverbank_distance_m":null}},{"type":"Feature","id":"node/3833169718","geometry":{"type":"Point","coordinates":[6.4978985,51.8323055]},"properties":{"source":"osm","query_name":"06-settlements","osm_type":"node","osm_id":3833169718,"category":"settlement","subtype":"locality","name":"Start","is_bridge":false,"display_class":"settlement","source_url":"https://www.openstreetmap.org/node/3833169718","riverbank_distance_m":null}},{"type":"Feature","id":"node/3833169719","geometry":{"type":"Point","coordinates":[6.5129416,51.8341567]},"properties":{"source":"osm","query_name":"06-settlements","osm_type":"node","osm_id":3833169719,"category":"settlement","subtype":"locality","name":"Uebbing auf dem Haar","is_bridge":false,"display_class":"settlement","source_url":"https://www.openstreetmap.org/node/3833169719","riverbank_distance_m":null}},{"type":"Feature","id":"node/3862974708","geometry":{"type":"Point","coordinates":[6.49406,51.8117338]},"properties":{"source":"osm","query_name":"06-settlements","osm_type":"node","osm_id":3862974708,"category":"settlement","subtype":"locality","name":"Schlüsskate","is_bridge":false,"display_class":"settlement","source_url":"https://www.openstreetmap.org/node/3862974708","riverbank_distance_m":null}},{"type":"Feature","id":"node/3862981433","geometry":{"type":"Point","coordinates":[6.4746212,51.8076983]},"properties":{"source":"osm","query_name":"06-settlements","osm_type":"node","osm_id":3862981433,"category":"settlement","subtype":"locality","name":"Paßmannsfeld","is_bridge":false,"display_class":"settlement","source_url":"https://www.openstreetmap.org/node/3862981433","riverbank_distance_m":null}},{"type":"Feature","id":"node/3864526057","geometry":{"type":"Point","coordinates":[6.4885822,51.8129493]},"properties":{"source":"osm","query_name":"06-settlements","osm_type":"node","osm_id":3864526057,"category":"settlement","subtype":"locality","name":"Alter Hof","is_bridge":false,"display_class":"settlement","source_url":"https://www.openstreetmap.org/node/3864526057","riverbank_distance_m":null}},{"type":"Feature","id":"node/3864526058","geometry":{"type":"Point","coordinates":[6.4864565,51.8127685]},"properties":{"source":"osm","query_name":"06-settlements","osm_type":"node","osm_id":3864526058,"category":"settlement","subtype":"locality","name":"Dorukamp","is_bridge":false,"display_class":"settlement","source_url":"https://www.openstreetmap.org/node/3864526058","riverbank_distance_m":null}},{"type":"Feature","id":"node/3864526059","geometry":{"type":"Point","coordinates":[6.4911003,51.812742]},"properties":{"source":"osm","query_name":"06-settlements","osm_type":"node","osm_id":3864526059,"category":"settlement","subtype":"locality","name":"Krumme Wässerung","is_bridge":false,"display_class":"settlement","source_url":"https://www.openstreetmap.org/node/3864526059","riverbank_distance_m":null}},{"type":"Feature","id":"node/3864526060","geometry":{"type":"Point","coordinates":[6.4899984,51.8136029]},"properties":{"source":"osm","query_name":"06-settlements","osm_type":"node","osm_id":3864526060,"category":"settlement","subtype":"locality","name":"Schmale Weide","is_bridge":false,"display_class":"settlement","source_url":"https://www.openstreetmap.org/node/3864526060","riverbank_distance_m":null}},{"type":"Feature","id":"node/3864589066","geometry":{"type":"Point","coordinates":[6.531644,51.8060237]},"properties":{"source":"osm","query_name":"06-settlements","osm_type":"node","osm_id":3864589066,"category":"settlement","subtype":"locality","name":"Issel Pand","is_bridge":false,"display_class":"settlement","source_url":"https://www.openstreetmap.org/node/3864589066","riverbank_distance_m":null}},{"type":"Feature","id":"node/9832192116","geometry":{"type":"Point","coordinates":[6.5399901,51.8200602]},"properties":{"source":"osm","query_name":"06-settlements","osm_type":"node","osm_id":9832192116,"category":"settlement","subtype":"locality","name":"Brommeling Hook","is_bridge":false,"display_class":"settlement","source_url":"https://www.openstreetmap.org/node/9832192116","riverbank_distance_m":null}},{"type":"Feature","id":"node/462197106","geometry":{"type":"Point","coordinates":[6.5500667,51.8339152]},"properties":{"source":"osm","query_name":"06-settlements","osm_type":"node","osm_id":462197106,"category":"settlement","subtype":"village","name":"Liedern","is_bridge":false,"display_class":"settlement","source_url":"https://www.openstreetmap.org/node/462197106","riverbank_distance_m":null}},{"type":"Feature","id":"node/3736044616","geometry":{"type":"Point","coordinates":[6.6061361,51.8130501]},"properties":{"source":"osm","query_name":"06-settlements","osm_type":"node","osm_id":3736044616,"category":"settlement","subtype":"suburb","name":"Mussum","is_bridge":false,"display_class":"settlement","source_url":"https://www.openstreetmap.org/node/3736044616","riverbank_distance_m":null}},{"type":"Feature","id":"node/3791864407","geometry":{"type":"Point","coordinates":[6.6237138,51.8180508]},"properties":{"source":"osm","query_name":"06-settlements","osm_type":"node","osm_id":3791864407,"category":"settlement","subtype":"suburb","name":"Biemenhorst","is_bridge":false,"display_class":"settlement","source_url":"https://www.openstreetmap.org/node/3791864407","riverbank_distance_m":null}},{"type":"Feature","id":"node/3864592872","geometry":{"type":"Point","coordinates":[6.5951677,51.8019924]},"properties":{"source":"osm","query_name":"06-settlements","osm_type":"node","osm_id":3864592872,"category":"settlement","subtype":"locality","name":"Döringfeld","is_bridge":false,"display_class":"settlement","source_url":"https://www.openstreetmap.org/node/3864592872","riverbank_distance_m":null}},{"type":"Feature","id":"node/3864592878","geometry":{"type":"Point","coordinates":[6.5927555,51.8004228]},"properties":{"source":"osm","query_name":"06-settlements","osm_type":"node","osm_id":3864592878,"category":"settlement","subtype":"locality","name":"Hetfeld","is_bridge":false,"display_class":"settlement","source_url":"https://www.openstreetmap.org/node/3864592878","riverbank_distance_m":null}},{"type":"Feature","id":"node/3864597331","geometry":{"type":"Point","coordinates":[6.5955134,51.8039237]},"properties":{"source":"osm","query_name":"06-settlements","osm_type":"node","osm_id":3864597331,"category":"settlement","subtype":"locality","name":"Siegeheide","is_bridge":false,"display_class":"settlement","source_url":"https://www.openstreetmap.org/node/3864597331","riverbank_distance_m":null}},{"type":"Feature","id":"node/3864629063","geometry":{"type":"Point","coordinates":[6.5859817,51.8043082]},"properties":{"source":"osm","query_name":"06-settlements","osm_type":"node","osm_id":3864629063,"category":"settlement","subtype":"locality","name":"Laaker Esch","is_bridge":false,"display_class":"settlement","source_url":"https://www.openstreetmap.org/node/3864629063","riverbank_distance_m":null}},{"type":"Feature","id":"node/3864973506","geometry":{"type":"Point","coordinates":[6.5961445,51.8054162]},"properties":{"source":"osm","query_name":"06-settlements","osm_type":"node","osm_id":3864973506,"category":"settlement","subtype":"locality","name":"Egelings Hook","is_bridge":false,"display_class":"settlement","source_url":"https://www.openstreetmap.org/node/3864973506","riverbank_distance_m":null}},{"type":"Feature","id":"node/3864973516","geometry":{"type":"Point","coordinates":[6.5975714,51.8073757]},