{"query_name":"03-bridges-waterworks","query_signature":"07c4e2e187b8d23bf4c1da0bdc9d56b38f5a79a7","tile_path":"219","payload":{"version":0.6,"generator":"Overpass API 0.7.62.11 87bfad18","osm3s":{"timestamp_osm_base":"2026-07-14T21:09:51Z","copyright":"The data included in this document is from www.openstreetmap.org. The data is made available under ODbL."},"elements":[{"type":"node","id":597448496,"lat":52.256283,"lon":6.7576616,"tags":{"waterway":"weir"}},{"type":"node","id":597448546,"lat":52.254677,"lon":6.7663254,"tags":{"waterway":"weir"}},{"type":"node","id":597448555,"lat":52.2506497,"lon":6.7889101,"tags":{"waterway":"weir"}},{"type":"node","id":2505408327,"lat":52.2761477,"lon":6.7732912,"tags":{"waterway":"weir"}},{"type":"node","id":2778798319,"lat":52.277412,"lon":6.7159727,"tags":{"addr:city":"Ambt Delden","addr:housenumber":"5","addr:postcode":"7495VK","addr:street":"Noordmolen","man_made":"watermill","name":"Noordmolen","source":"BAG","source:date":"2014-03-24","start_date":"1347","tourism":"museum","website":"https://noordmolen-twickel.nl/"}},{"type":"node","id":4356480837,"lat":52.2673168,"lon":6.7887914,"tags":{"description":"Historische stuw Drienerbeek","waterway":"weir"}},{"type":"node","id":13323885274,"lat":52.2659215,"lon":6.7814703,"tags":{"man_made":"pumping_station"}},{"type":"node","id":13987941523,"lat":52.2592055,"lon":6.763969,"tags":{"waterway":"weir"}},{"type":"way","id":6304047,"nodes":[3790235645,3790243658],"tags":{"axle_load":"22.5","bridge":"yes","bridge:name":"Wooldermeen","description":"Almelo - Hengelo","electrified":"contact_line","frequency":"0","gauge":"1435","layer":"1","loading_gauge":"TSI_GB","maxspeed":"130","operator":"ProRail","passenger_lines":"2","railway":"rail","railway:atb":"yes","railway:atb-eg":"yes","railway:etcs":"no","railway:maximum_current":"4000","railway:track_class":"D4","railway:traffic_mode":"mixed","ref":"025","ref:ProRailSpoortak":"606_111V_1.0","source":"ProRail","source:date":"2014-01-03","start_date":"1865-10-18","usage":"main","voltage":"1500"}},{"type":"way","id":6304057,"nodes":[3790235652,3789124551],"tags":{"axle_load":"22.5","bridge":"yes","description":"Almelo - Hengelo","electrified":"contact_line","frequency":"0","gauge":"1435","layer":"1","loading_gauge":"TSI_GB","maxspeed":"130","operator":"ProRail","passenger_lines":"2","railway":"rail","railway:atb":"yes","railway:atb-eg":"yes","railway:etcs":"no","railway:maximum_current":"4000","railway:track_class":"D4","railway:traffic_mode":"mixed","ref":"025","ref:ProRailSpoortak":"606_111V_1.0","source":"ProRail","source:date":"2014-01-03","start_date":"1865-10-18","usage":"main","voltage":"1500"}},{"type":"way","id":6304094,"nodes":[3786207526,3787616566],"tags":{"axle_load":"22.5","bridge":"yes","description":"Hengelo","electrified":"contact_line","frequency":"0","gauge":"1435","layer":"1","loading_gauge":"TSI_GB","maxspeed":"80","operator":"ProRail","passenger_lines":"1","railway":"rail","railway:atb":"yes","railway:atb-eg":"no","railway:atb-ng":"yes","railway:etcs":"no","railway:maximum_current":"4000","railway:track_class":"D2","railway:traffic_mode":"mixed","ref":"543c","source":"ProRail","start_date":"1865-11-01","usage":"branch","voltage":"1500"}},{"type":"way","id":6304102,"nodes":[3788072535,3788072534],"tags":{"axle_load":"22.5","bridge":"yes","description":"Zutphen - Winterswijk","electrified":"no","gauge":"1435","layer":"1","loading_gauge":"TSI_GB","maxspeed":"80","operator":"ProRail","passenger_lines":"1","proposed:electrified":"contact_line","proposed:frequency":"0","proposed:voltage":"1500","railway":"rail","railway:atb":"yes","railway:atb-eg":"no","railway:atb-ng":"yes","railway:etcs":"no","railway:track_class":"D2","railway:traffic_mode":"mixed","ref":"031a","source":"ProRail","start_date":"1865-11-01","usage":"branch"}},{"type":"way","id":6669936,"nodes":[45872802,12049829288],"tags":{"bicycle":"no","bridge":"yes","bridge:name":"Boekelosebrug","foot":"no","highway":"secondary","lanes":"2","layer":"1","maxspeed":"50","maxweight:signed":"no","name":"Diamantstraat","surface":"asphalt","zone:traffic":"NL:urban"}},{"type":"way","id":6672262,"nodes":[45882352,45884935],"tags":{"bicycle":"use_sidepath","bridge":"yes","bridge:name":"Oelerbrug","foot":"use_sidepath","highway":"primary","lanes":"2","layer":"1","lit":"yes","maxspeed":"50","mofa":"use_sidepath","moped":"use_sidepath","name":"Haaksbergerstraat","sidewalk":"no","source:maxspeed":"NL:urban","surface":"asphalt"}},{"type":"way","id":6672545,"nodes":[45978882,45979289],"tags":{"bridge":"yes","highway":"unclassified","layer":"1","maxspeed":"60","mofa":"yes","moped":"yes","motor_vehicle":"destination","name":"Hamsweg"}},{"type":"way","id":6672586,"nodes":[45929437,45927480],"tags":{"bridge":"yes","carriageway_ref":"Re","change:lanes":"no|not_right|no","highway":"motorway","lanes":"3","layer":"1","lit":"no","maxspeed":"100","maxspeed:conditional":"130 @ (19:00-06:00)","oneway":"yes","operator":"Rijkswaterstaat","placement":"right_of:1","ref":"A35","surface":"asphalt","toll:hgv":"yes"}},{"type":"way","id":6672588,"nodes":[45927329,45929071],"tags":{"bridge":"yes","carriageway_ref":"Li","highway":"motorway","lanes":"3","layer":"1","lit":"no","maxspeed":"100","maxspeed:conditional":"130 @ (19:00-06:00)","oneway":"yes","operator":"Rijkswaterstaat","placement":"right_of:1","ref":"A35","surface":"asphalt","toll:hgv":"yes","turn:lanes":"none|none|slight_right"}},{"type":"way","id":6672607,"nodes":[45947701,45945303],"tags":{"bridge":"yes","bridge:name":"Kamphorst","carriageway_ref":"Re","highway":"motorway","lanes":"2","layer":"1","lit":"no","maxspeed":"100","maxspeed:conditional":"120 @ (19:00-06:00)","oneway":"yes","operator":"Rijkswaterstaat","ref":"A35","surface":"asphalt","toll:hgv":"yes"}},{"type":"way","id":6672608,"nodes":[45945370,45947777],"tags":{"bridge":"yes","bridge:name":"Kamphorst","carriageway_ref":"Li","highway":"motorway","lanes":"2","layer":"1","lit":"no","maxspeed":"100","maxspeed:conditional":"130 @ (19:00-06:00)","oneway":"yes","operator":"Rijkswaterstaat","ref":"A35","surface":"asphalt","toll:hgv":"yes"}},{"type":"way","id":6673187,"nodes":[5194726750,5194726749],"tags":{"bridge":"yes","bridge:name":"Vossenbrinkbrug","cycleway:both":"no","foot":"yes","highway":"tertiary","lanes":"1","layer":"1","maxaxleload":"7.3","maxspeed":"60","maxweight":"30","name":"Beckumerweg","priority":"forward","sidewalk":"no","smoothness":"excellent","source:maxspeed":"NL:zone60","surface":"asphalt"}},{"type":"way","id":28709082,"nodes":[315581493,315581494],"tags":{"bridge":"yes","bridge:name":"Oelerbrug","highway":"cycleway","layer":"1","lit":"yes","moped":"designated","name":"Haaksbergerstraat","oneway":"no","segregated":"no","sidewalk":"no","smoothness":"good","surface":"asphalt","traffic_sign":"NL:G12a"}},{"type":"way","id":28709089,"nodes":[315581526,12049829289],"tags":{"bridge":"yes","bridge:name":"Boekelosebrug","highway":"cycleway","layer":"1","mofa":"designated","moped":"designated","name":"Laan Hart van Zuid","oneway":"yes","sidewalk":"right","surface":"asphalt","traffic_sign":"NL:G12a","width":"2.4","zone:traffic":"NL:urban"}},{"type":"way","id":43247787,"nodes":[542794789,542794791],"tags":{"bicycle":"designated","bridge":"yes","dog":"leashed","foot":"designated","highway":"path","layer":"1","name":"Oelerschoolpad","segregated":"no","smoothness":"good","surface":"wood"}},{"type":"way","id":44012735,"nodes":[559607926,559607927],"tags":{"bridge":"yes","dog":"unleashed","foot":"permissive","highway":"path","layer":"1","surface":"wood"}},{"type":"way","id":44012738,"nodes":[559607843,559607846],"tags":{"bridge":"yes","dog":"unleashed","highway":"track","layer":"1","surface":"paved","surface:note":"asfaltstrip op brug","tracktype":"grade1"}},{"type":"way","id":44012743,"nodes":[45963005,559607952],"tags":{"bridge":"yes","cycleway:both":"no","highway":"unclassified","lane_markings":"no","layer":"1","maxspeed":"60","maxweight:signed":"no","name":"Bornsevoetpad","surface":"wood"}},{"type":"way","id":44025436,"nodes":[559741066,559741069],"tags":{"bridge":"yes","cycleway:both":"no","foot":"yes","highway":"unclassified","lane_markings":"no","layer":"1","lit":"no","maxspeed":"60","maxweight":"2.0","name":"Noordmolen","narrow":"yes","sidewalk":"no","surface":"wood"}},{"type":"way","id":44025438,"nodes":[45990584,699928411],"tags":{"bridge":"yes","cycleway:both":"no","foot":"yes","highway":"unclassified","lane_markings":"no","layer":"1","lit":"no","maxspeed":"60","maxweight":"2.0","name":"Noordmolen","narrow":"yes","sidewalk":"no","surface":"wood"}},{"type":"way","id":45971205,"nodes":[585347471,585347472],"tags":{"bridge":"yes","bridge:name":"Oelerbrug","highway":"cycleway","layer":"1","lit":"yes","moped":"designated","name":"Haaksbergerstraat","oneway":"no","segregated":"no","sidewalk":"no","smoothness":"good","surface":"asphalt","traffic_sign":"NL:G12a"}},{"type":"way","id":46739468,"nodes":[597448498,372975720],"tags":{"bicycle":"yes","bridge":"yes","foot":"yes","highway":"path","layer":"1","surface":"fine_gravel"}},{"type":"way","id":46739472,"nodes":[597448527,597448528],"tags":{"bicycle":"yes","bridge":"yes","foot":"yes","highway":"path","layer":"1","surface":"gravel"}},{"type":"way","id":46739545,"nodes":[597448927,597448925],"tags":{"bridge":"yes","highway":"service","layer":"1","surface":"concrete"}},{"type":"way","id":46780580,"nodes":[45953674,4356480839],"tags":{"bridge":"yes","highway":"footway","layer":"1","lit":"yes","maxweight":"3.5","name":"Heemafstraat","smoothness":"good","surface":"wood"}},{"type":"way","id":46780583,"nodes":[597777791,597777783],"tags":{"bridge":"yes","highway":"footway","layer":"1","surface":"wood"}},{"type":"way","id":48429346,"nodes":[615072519,615072520],"tags":{"bridge":"yes","foot":"yes","highway":"cycleway","layer":"1","lit":"yes","oneway":"no","segregated":"no","surface":"wood","traffic_sign":"none"}},{"type":"way","id":54728610,"nodes":[689083125,12147513042,674479239,689083141,699928411,689083142,689083125],"tags":{"area":"yes","bridge":"viaduct"}},{"type":"way","id":55697818,"nodes":[699932664,699932675],"tags":{"bridge":"yes","cycleway":"lane","highway":"tertiary","layer":"1","maxspeed":"60","name":"Bornsestraat"}},{"type":"way","id":55697819,"nodes":[699932670,699932666],"tags":{"bridge":"yes","cycleway":"lane","highway":"tertiary","layer":"1","maxspeed":"60","name":"Bornsestraat"}},{"type":"way","id":55698846,"nodes":[699948550,699948552],"tags":{"bridge":"yes","cycleway:both":"no","dog":"unleashed","highway":"unclassified","lane_markings":"no","layer":"1","maxspeed":"60","maxweight:signed":"no","name":"Bornsevoetpad","surface":"wood"}},{"type":"way","id":55699344,"nodes":[699951833,699951837],"tags":{"bridge":"yes","check_date:surface":"2023-10-10","dog":"unleashed","highway":"track","layer":"1","surface":"wood","tracktype":"grade1"}},{"type":"way","id":58915703,"nodes":[372975767,372975769],"tags":{"bicycle":"yes","bridge":"yes","foot":"yes","highway":"path","layer":"1","surface":"fine_gravel"}},{"type":"way","id":60867561,"nodes":[315581546,12049829287],"tags":{"bridge":"yes","bridge:name":"Boekelosebrug","highway":"cycleway","layer":"1","mofa":"designated","moped":"designated","name":"Diamantstraat","oneway":"yes","sidewalk":"right","source:width":"ARCore","surface":"asphalt","traffic_sign":"NL:G12a","width":"2.4","zone:traffic":"NL:urban"}},{"type":"way","id":80998491,"nodes":[944313099,944313237],"tags":{"bridge":"yes","highway":"path","layer":"1","surface":"wood"}},{"type":"way","id":80998498,"nodes":[944313401,944313036],"tags":{"bridge":"yes","highway":"path","layer":"1","surface":"paved","surface:note":"asfaltstrip op brugdek"}},{"type":"way","id":80998499,"nodes":[944312987,944313350],"tags":{"bridge":"yes","highway":"path","layer":"1","surface":"wood"}},{"type":"way","id":80998517,"nodes":[944312953,944313077],"tags":{"bridge":"yes","highway":"path","layer":"1","surface":"wood"}},{"type":"way","id":81910533,"nodes":[954695170,954695149],"tags":{"bicycle":"yes","bridge":"yes","foot":"yes","highway":"path","layer":"1","surface":"fine_gravel"}},{"type":"way","id":81910538,"nodes":[954695164,954695154],"tags":{"bicycle":"yes","bridge":"yes","foot":"yes","highway":"path","layer":"1","surface":"fine_gravel"}},{"type":"way","id":97174347,"nodes":[3790235648,3790235644],"tags":{"axle_load":"22.5","bridge":"yes","bridge:name":"Wooldermeen","description":"Almelo - Hengelo","electrified":"contact_line","frequency":"0","gauge":"1435","layer":"1","loading_gauge":"TSI_GB","maxspeed":"130","operator":"ProRail","passenger_lines":"2","railway":"rail","railway:atb":"yes","railway:atb-eg":"yes","railway:etcs":"no","railway:maximum_current":"4000","railway:track_class":"D4","railway:traffic_mode":"mixed","ref":"025","ref:ProRailSpoortak":"606_109V_1.0","source":"ProRail","source:date":"2014-01-03","start_date":"1865-10-18","usage":"main","voltage":"1500"}},{"type":"way","id":97174362,"nodes":[3790243660,3789124554],"tags":{"axle_load":"22.5","bridge":"yes","description":"Almelo - Hengelo","electrified":"contact_line","frequency":"0","gauge":"1435","layer":"1","loading_gauge":"TSI_GB","maxspeed":"130","operator":"ProRail","passenger_lines":"2","railway":"rail","railway:atb":"yes","railway:atb-eg":"yes","railway:etcs":"no","railway:maximum_current":"4000","railway:track_class":"D4","railway:traffic_mode":"mixed","ref":"025","ref:ProRailSpoortak":"606_109V_1.0","source":"ProRail","source:date":"2014-01-03","start_date":"1865-10-18","usage":"main","voltage":"1500"}},{"type":"way","id":135087804,"nodes":[1483923751,665788845],"tags":{"bridge":"yes","highway":"residential","layer":"1","lit":"yes","maxspeed":"30","name":"Algonquin","surface":"asphalt","zone:traffic":"NL:urban"}},{"type":"way","id":135087813,"nodes":[1483923736,1483923738],"tags":{"bridge":"yes","highway":"residential","layer":"1","lit":"yes","maxspeed":"30","name":"Coldstream","source:maxspeed":"NL:zone30","surface":"asphalt","zone:traffic":"NL:urban"}},{"type":"way","id":135087816,"nodes":[1483923757,1483923756],"tags":{"bridge":"yes","highway":"residential","layer":"1","lit":"yes","maxspeed":"30","name":"Hampshire","source:maxspeed":"NL:zone30","surface":"asphalt","zone:traffic":"NL:urban"}},{"type":"way","id":136684187,"nodes":[1499460851,1499460852],"tags":{"bridge":"yes","highway":"unclassified","layer":"1","maxspeed":"60","mofa":"yes","moped":"yes","motor_vehicle:conditional":"destination @ (Su 00:00-24:00)","name":"Vöckersweg","source:maxspeed":"NL:zone60","surface":"asphalt"}},{"type":"way","id":142275762,"nodes":[1557238120,1557238133],"tags":{"bridge":"yes","bridge:name":"Loofriet","carriageway_ref":"Li","highway":"motorway","lanes":"2","layer":"1","lit":"no","maxspeed":"100","maxspeed:conditional":"130 @ (19:00-06:00)","oneway":"yes","operator":"Rijkswaterstaat","ref":"A35","surface":"asphalt","toll:hgv":"yes"}},{"type":"way","id":142275763,"nodes":[1557238131,1557238119],"tags":{"bridge":"yes","bridge:name":"Loofriet","carriageway_ref":"Re","highway":"motorway","lanes":"2","layer":"1","lit":"no","maxspeed":"100","maxspeed:conditional":"130 @ (19:00-06:00)","oneway":"yes","operator":"Rijkswaterstaat","ref":"A35","surface":"asphalt","toll:hgv":"yes"}},{"type":"way","id":188667304,"nodes":[1992924883,1992924886],"tags":{"bridge":"yes","highway":"footway","layer":"1","name":"Hortensiastraat","surface":"metal"}},{"type":"way","id":210650714,"nodes":[2207317024,2207317022],"tags":{"bridge":"yes","highway":"footway","layer":"1","surface":"wood"}},{"type":"way","id":228281900,"nodes":[2369370652,2369370653],"tags":{"bicycle":"yes","bridge":"yes","foot":"yes","highway":"path","layer":"1","surface":"fine_gravel"}},{"type":"way","id":228281901,"nodes":[374458390,2369370630],"tags":{"bicycle":"yes","bridge":"yes","foot":"yes","highway":"path","layer":"1","surface":"fine_gravel"}},{"type":"way","id":236790389,"nodes":[2447646573,2447646576],"tags":{"bicycle":"no","bridge":"yes","foot":"yes","highway":"path","layer":"1"}},{"type":"way","id":262105826,"nodes":[2677517537,2847611886],"tags":{"bicycle":"dismount","bridge":"yes","handrail":"yes","highway":"steps","incline":"up","layer":"1","ramp":"yes","ramp:bicycle":"yes","step_count":"78","surface":"metal","tactile_paving":"no"}},{"type":"way","id":266390622,"nodes":[2719517343,2719517350],"tags":{"bridge":"yes","highway":"service","layer":"1","surface":"concrete"}},{"type":"way","id":276524957,"nodes":[2811240155,2811240159,7758315092],"tags":{"bridge":"movable","bridge:movable":"drawbridge","highway":"service","layer":"1","maxweight:signed":"no","name":"Twickelerlaan","surface":"wood"}},{"type":"way","id":276526479,"nodes":[2811253313,2811252694],"tags":{"access":"private","bridge":"yes","highway":"service","layer":"1"}},{"type":"way","id":276528242,"nodes":[2811273926,2811273922],"tags":{"access":"private","bridge":"yes","highway":"service","layer":"1","name":"Bentheimerbrug"}},{"type":"way","id":276529855,"nodes":[2811288489,2811288487],"tags":{"access":"private","bridge":"yes","highway":"service","layer":"1"}},{"type":"way","id":276753135,"nodes":[2813364412,2813364406],"tags":{"access":"private","bridge":"yes","highway":"service","layer":"1"}},{"type":"way","id":276753139,"nodes":[2811253305,2813364411],"tags":{"access":"private","bridge":"yes","highway":"service","layer":"1"}},{"type":"way","id":277725358,"nodes":[2821942263,2821942273],"tags":{"access":"private","bridge":"yes","highway":"footway","layer":"1"}},{"type":"way","id":281436927,"nodes":[2677517531,2847611886],"tags":{"bridge":"yes","check_date:handrail":"2023-10-10","handrail":"yes","highway":"steps","incline":"up","layer":"1","ramp":"yes","ramp:bicycle":"yes","step_count":"78","surface":"metal","tactile_paving":"no"}},{"type":"way","id":295408518,"nodes":[3790235640,3790235656],"tags":{"axle_load":"22.5","bridge":"yes","description":"Almelo - Hengelo","electrified":"contact_line","frequency":"0","gauge":"1435","layer":"1","loading_gauge":"TSI_GB","maxspeed":"130","operator":"ProRail","passenger_lines":"2","railway":"rail","railway:atb":"yes","railway:atb-eg":"yes","railway:etcs":"no","railway:maximum_current":"4000","railway:track_class":"D4","railway:traffic_mode":"mixed","ref":"025","ref:ProRailSpoortak":"606_111V_1.0","source":"ProRail","source:date":"2014-01-03","start_date":"1865-10-18","usage":"main","voltage":"1500"}},{"type":"way","id":324237917,"nodes":[597448829,597448830],"tags":{"bridge":"yes","check_date:surface":"2026-06-13","foot":"yes","highway":"path","layer":"1","surface":"concrete"}},{"type":"way","id":340691121,"nodes":[374458964,3479410037],"tags":{"bridge":"yes","check_date:surface":"2026-05-03","highway":"footway","layer":"1","surface":"wood"}},{"type":"way","id":375389979,"nodes":[3787616567,3786207510],"tags":{"bridge":"yes","description":"Hengelo","electrified":"contact_line","frequency":"0","gauge":"1435","layer":"1","maxspeed":"40","operator":"ProRail","railway":"rail","railway:atb":"no","railway:etcs":"no","railway:gnt":"no","railway:lzb":"no","railway:maximum_current":"4000","railway:pzb":"no","ref":"543c","service":"siding","source":"ProRail","voltage":"1500"}},{"type":"way","id":375679338,"nodes":[3790235655,3789121042],"tags":{"axle_load":"22.5","bridge":"yes","description":"Hengelo","electrified":"contact_line","frequency":"0","gauge":"1435","layer":"1","loading_gauge":"TSI_GB","maxspeed":"40","operator":"ProRail","passenger_lines":"2","railway":"rail","railway:atb":"yes","railway:atb-eg":"yes","railway:atb-ng":"no","railway:etcs":"no","railway:maximum_current":"4000","railway:track_class":"D4","railway:traffic_mode":"mixed","ref":"543a","ref:ProRailSpoortak":"606_109V_1.0","source":"ProRail","source:date":"2014-01-03","start_date":"1865-10-18","usage":"main","voltage":"1500"}},{"type":"way","id":375679339,"nodes":[3789124511,3789124508],"tags":{"axle_load":"22.5","bridge":"yes","description":"Almelo - Hengelo","electrified":"contact_line","frequency":"0","gauge":"1435","layer":"1","loading_gauge":"TSI_GB","maxspeed":"120","operator":"ProRail","passenger_lines":"2","railway":"rail","railway:atb":"yes","railway:atb-eg":"yes","railway:etcs":"no","railway:maximum_current":"4000","railway:track_class":"D4","railway:traffic_mode":"mixed","ref":"025","ref:ProRailSpoortak":"606_111V_1.0","source":"ProRail","source:date":"2014-01-03","start_date":"1865-10-18","usage":"main","voltage":"1500"}},{"type":"way","id":375679345,"nodes":[3789121040,3790235650],"tags":{"axle_load":"22.5","bridge":"yes","description":"Hengelo","electrified":"contact_line","frequency":"0","gauge":"1435","layer":"1","loading_gauge":"TSI_GB","maxspeed":"40","operator":"ProRail","passenger_lines":"2","railway":"rail","railway:atb":"yes","railway:atb-eg":"yes","railway:atb-ng":"no","railway:etcs":"no","railway:maximum_current":"4000","railway:track_class":"D4","railway:traffic_mode":"mixed","ref":"543a","ref:ProRailSpoortak":"606_111V_1.0","source":"ProRail","source:date":"2014-01-03","start_date":"1865-10-18","usage":"main","voltage":"1500"}},{"type":"way","id":375679350,"nodes":[3790235642,3790243659],"tags":{"axle_load":"22.5","bridge":"yes","description":"Almelo - Hengelo","electrified":"contact_line","frequency":"0","gauge":"1435","layer":"1","loading_gauge":"TSI_GB","maxspeed":"120","operator":"ProRail","passenger_lines":"2","railway":"rail","railway:atb":"yes","railway:atb-eg":"yes","railway:etcs":"no","railway:maximum_current":"4000","railway:track_class":"D4","railway:traffic_mode":"mixed","ref":"025","ref:ProRailSpoortak":"606_109V_1.0","source":"ProRail","source:date":"2014-01-03","start_date":"1865-10-18","usage":"main","voltage":"1500"}},{"type":"way","id":375679351,"nodes":[3790243657,3790235649],"tags":{"axle_load":"22.5","bridge":"yes","description":"Almelo - Hengelo","electrified":"contact_line","frequency":"0","gauge":"1435","layer":"1","loading_gauge":"TSI_GB","maxspeed":"130","operator":"ProRail","passenger_lines":"2","railway":"rail","railway:atb":"yes","railway:atb-eg":"yes","railway:etcs":"no","railway:maximum_current":"4000","railway:track_class":"D4","railway:traffic_mode":"mixed","ref":"025","ref:ProRailSpoortak":"606_109V_1.0","source":"ProRail","source:date":"2014-01-03","start_date":"1865-10-18","usage":"main","voltage":"1500"}},{"type":"way","id":414844242,"nodes":[3807236556,4159814231],"tags":{"axle_load":"22.5","bridge":"yes","description":"Zutphen - Winterswijk","electrified":"no","gauge":"1435","layer":"1","loading_gauge":"TSI_GB","maxspeed":"80","name":"Twentekanaallijn","operator":"ProRail","passenger_lines":"2","proposed:electrified":"contact_line","proposed:frequency":"0","proposed:voltage":"1500","railway":"rail","railway:atb":"yes","railway:atb-eg":"no","railway:atb-ng":"yes","railway:etcs":"no","railway:track_class":"D2","railway:traffic_mode":"mixed","ref":"031a","ref:ProRailSpoortak":"031_285L_39.4","source":"ProRail","source:date":"2013-07-10","start_date":"1865-11-01","usage":"branch"}},{"type":"way","id":414844243,"nodes":[4159814230,4159814229],"tags":{"axle_load":"22.5","bridge":"yes","description":"Zutphen - Winterswijk","electrified":"no","gauge":"1435","layer":"1","loading_gauge":"TSI_GB","maxspeed":"100","name":"Twentekanaallijn","operator":"ProRail","passenger_lines":"2","proposed:electrified":"contact_line","proposed:frequency":"0","proposed:voltage":"1500","railway":"rail","railway:atb":"yes","railway:atb-eg":"no","railway:atb-ng":"yes","railway:etcs":"no","railway:track_class":"D2","railway:traffic_mode":"mixed","ref":"031a","ref:ProRailSpoortak":"031_285R_39.4","source":"ProRail","source:date":"2013-07-10","start_date":"1865-11-01","usage":"branch"}},{"type":"way","id":425334163,"nodes":[6251576665,6251576664],"tags":{"bridge":"yes","highway":"path","layer":"1","surface":"wood"}},{"type":"way","id":429943411,"nodes":[4291461090,4291461089],"tags":{"bridge":"yes","foot":"yes","highway":"path","layer":"1","lit":"no","surface":"wood"}},{"type":"way","id":492207898,"nodes":[4842555105,4842555104],"tags":{"bridge":"yes","foot":"yes","highway":"footway","layer":"1","surface":"wood"}},{"type":"way","id":492207905,"nodes":[4842555109,4842555110],"tags":{"bridge":"yes","foot":"yes","highway":"footway","layer":"1","surface":"wood"}},{"type":"way","id":523886679,"nodes":[5099280520,5099280621],"tags":{"bridge":"yes","highway":"service","layer":"1","surface":"asphalt"}},{"type":"way","id":524226961,"nodes":[5101831377,5101831376,5101831375],"tags":{"bridge":"yes","highway":"path","layer":"1","surface":"wood"}},{"type":"way","id":534649846,"nodes":[5184630514,13251335233,5184630513],"tags":{"bridge":"yes","highway":"service","layer":"1","maxweight":"16","surface":"paving_stones"}},{"type":"way","id":562345650,"nodes":[5421437263,5421437253],"tags":{"bridge":"yes","highway":"path","layer":"1","surface":"wood"}},{"type":"way","id":633709438,"nodes":[5981736645,5981736653],"tags":{"bridge":"yes","foot":"yes","highway":"cycleway","layer":"1","lit":"yes","mofa":"yes","moped":"no","name":"Indiëspoor","oneway":"no","segregated":"no","smoothness":"good","speed_pedelec":"yes","surface":"asphalt","traffic_sign":"NL:G11","width":"4"}},{"type":"way","id":693877342,"nodes":[2505408322,1698674336],"tags":{"bridge":"yes","highway":"unclassified","layer":"1","lit":"yes","maxspeed":"50","name":"Eggerinksweg","smoothness":"good","source:maxspeed":"NL:urban","surface":"asphalt"}},{"type":"way","id":783764731,"nodes":[7320670942,7320695890],"tags":{"bridge":"yes","highway":"footway","layer":"1","maxweight":"3.5","surface":"asphalt"}},{"type":"way","id":822336470,"nodes":[7678328589,7684652990],"tags":{"bridge":"yes","highway":"footway","layer":"1","smoothness":"excellent","surface":"asphalt","width":"2.7"}},{"type":"way","id":826504337,"nodes":[7716896885,7716896886],"tags":{"bridge":"yes","highway":"service","layer":"1","maxweight":"1.5","service":"driveway"}},{"type":"way","id":826504340,"nodes":[7716896889,7716896890],"tags":{"bridge":"yes","highway":"service","layer":"1","maxweight":"1.5","service":"driveway"}},{"type":"way","id":826504342,"nodes":[7716896883,7716896892],"tags":{"bridge":"yes","highway":"service","layer":"1","service":"driveway"}},{"type":"way","id":826524049,"nodes":[7717044737,7717044738],"tags":{"bridge":"yes","highway":"service","layer":"1","maxweight":"1.5","service":"driveway"}},{"type":"way","id":826524053,"nodes":[7717044744,7717044745],"tags":{"bridge":"yes","highway":"service","layer":"1","maxweight":"1.5","service":"driveway"}},{"type":"way","id":831407713,"nodes":[7762647723,7762647724],"tags":{"bridge":"yes","highway":"path","layer":"1","surface":"wood"}},{"type":"way","id":866665621,"nodes":[8078100367,7527306978],"tags":{"access":"private","bridge":"yes","highway":"service","layer":"1"}},{"type":"way","id":1300964846,"nodes":[12049829287,315581544],"tags":{"bridge":"yes","bridge:name":"Boekelosebrug","highway":"cycleway","layer":"1","mofa":"designated","moped":"designated","name":"Laan Hart van Zuid","oneway":"yes","sidewalk":"right","surface":"asphalt","traffic_sign":"NL:G12a","width":"2.4","zone:traffic":"NL:urban"}},{"type":"way","id":1300964847,"nodes":[12049829288,45875628],"tags":{"bicycle":"no","bridge":"yes","bridge:name":"Boekelosebrug","foot":"no","highway":"secondary","lanes":"2","layer":"1","maxspeed":"50","maxweight:signed":"no","name":"Laan Hart van Zuid","surface":"asphalt","zone:traffic":"NL:urban"}},{"type":"way","id":1300964848,"nodes":[12049829289,315581527],"tags":{"bridge":"yes","bridge:name":"Boekelosebrug","highway":"cycleway","layer":"1","mofa":"designated","moped":"designated","name":"Diamantstraat","oneway":"yes","sidewalk":"right","surface":"asphalt","traffic_sign":"NL:G12a","width":"2.4","zone:traffic":"NL:urban"}},{"type":"way","id":1348175574,"nodes":[12470751028,12470751027],"tags":{"bridge":"yes","highway":"path","layer":"1","surface":"wood"}},{"type":"way","id":1348175794,"nodes":[12470702826,12469779059],"tags":{"bridge":"yes","highway":"footway","layer":"1","surface":"paving_stones"}},{"type":"way","id":1348176636,"nodes":[12470772035,12470772034],"tags":{"bridge":"yes","highway":"path","layer":"1","surface":"wood"}},{"type":"way","id":1444859489,"nodes":[13257357039,13257357038],"tags":{"bridge":"yes","highway":"path","layer":"1","surface":"asphalt"}},{"type":"way","id":1444859495,"nodes":[13257357097,13257357096],"tags":{"bridge":"yes","highway":"path","layer":"1"}},{"type":"way","id":1465135486,"nodes":[13438077371,13438077372],"tags":{"waterway":"weir"}},{"type":"way","id":1471440360,"nodes":[7685485066,7685485065],"tags":{"bridge":"yes","highway":"footway","layer":"1","surface":"asphalt"}},{"type":"way","id":1471440363,"nodes":[13502432256,13502432255],"tags":{"bridge":"yes","highway":"footway","layer":"1","surface":"paving_stones"}},{"type":"node","id":5194726749,"lat":52.2525321,"lon":6.7203881},{"type":"node","id":5194726750,"lat":52.2519762,"lon":6.7203732},{"type":"node","id":3807236556,"lat":52.2602193,"lon":6.7185806},{"type":"node","id":4159814229,"lat":52.2601829,"lon":6.7185798},{"type":"node","id":4159814230,"lat":52.2601887,"lon":6.7187595},{"type":"node","id":4159814231,"lat":52.2602252,"lon":6.7187636},{"type":"node","id":542794789,"lat":52.2472677,"lon":6.7420263},{"type":"node","id":542794791,"lat":52.2472566,"lon":6.742118},{"type":"node","id":954695149,"lat":52.2548605,"lon":6.7560575},{"type":"node","id":954695154,"lat":52.2540717,"lon":6.7558421},{"type":"node","id":954695164,"lat":52.2541196,"lon":6.7557276},{"type":"node","id":954695170,"lat":52.2549417,"lon":6.7561282},{"type":"node","id":1557238119,"lat":52.2504446,"lon":6.7542687},{"type":"node","id":1557238120,"lat":52.2504352,"lon":6.7545648},{"type":"node","id":1557238131,"lat":52.2516508,"lon":6.7538876},{"type":"node","id":1557238133,"lat":52.2516396,"lon":6.7541766},{"type":"node","id":1499460851,"lat":52.2502296,"lon":6.760243},{"type":"node","id":1499460852,"lat":52.2502373,"lon":6.7600802},{"type":"node","id":45927329,"lat":52.2609767,"lon":6.7517375},{"type":"node","id":45927480,"lat":52.260973,"lon":6.7514666},{"type":"node","id":45929071,"lat":52.2613603,"lon":6.7516605},{"type":"node","id":45929437,"lat":52.2613522,"lon":6.7513888},{"type":"node","id":372975767,"lat":52.255753,"lon":6.7563508},{"type":"node","id":372975769,"lat":52.2556638,"lon":6.7563915},{"type":"node","id":2369370652,"lat":52.2611094,"lon":6.7565619},{"type":"node","id":2369370653,"lat":52.2611131,"lon":6.7566715},{"type":"node","id":372975720,"lat":52.2563112,"lon":6.7577147},{"type":"node","id":374458390,"lat":52.2597258,"lon":6.7584991},{"type":"node","id":597448498,"lat":52.2562499,"lon":6.7576777},{"type":"node","id":2369370630,"lat":52.259624,"lon":6.7584842},{"type":"node","id":2811240155,"lat":52.2667552,"lon":6.7160599},{"type":"node","id":2811240159,"lat":52.2667705,"lon":6.7161041},{"type":"node","id":2811252694,"lat":52.2661543,"lon":6.7143264},{"type":"node","id":2811253305,"lat":52.2666431,"lon":6.7165897},{"type":"node","id":2811253313,"lat":52.2662541,"lon":6.7146117},{"type":"node","id":2811273922,"lat":52.2679146,"lon":6.7129271},{"type":"node","id":2811273926,"lat":52.2678843,"lon":6.7127642},{"type":"node","id":2811288487,"lat":52.2664323,"lon":6.7151216},{"type":"node","id":2811288489,"lat":52.2665292,"lon":6.715403},{"type":"node","id":2813364406,"lat":52.2670783,"lon":6.7161863},{"type":"node","id":2813364411,"lat":52.2666857,"lon":6.7165502},{"type":"node","id":2813364412,"lat":52.2670306,"lon":6.7162306},{"type":"node","id":2821942263,"lat":52.2666055,"lon":6.7124327},{"type":"node","id":2821942273,"lat":52.2666755,"lon":6.7126757},{"type":"node","id":7758315092,"lat":52.266807,"lon":6.7162102},{"type":"node","id":559607843,"lat":52.2664886,"lon":6.7227957},{"type":"node","id":559607846,"lat":52.266541,"lon":6.7229085},{"type":"node","id":2677517531,"lat":52.2630475,"lon":6.7203766},{"type":"node","id":2677517537,"lat":52.2634866,"lon":6.7199719},{"type":"node","id":2847611886,"lat":52.2632854,"lon":6.7201573},{"type":"node","id":699932664,"lat":52.2745717,"lon":6.7181223},{"type":"node","id":699932666,"lat":52.2743775,"lon":6.717809},{"type":"node","id":699932670,"lat":52.2743065,"lon":6.7176776},{"type":"node","id":699932675,"lat":52.2746415,"lon":6.7182348},{"type":"node","id":699948550,"lat":52.2683377,"lon":6.7206585},{"type":"node","id":699948552,"lat":52.2683732,"lon":6.7207617},{"type":"node","id":944312953,"lat":52.2724475,"lon":6.7190153},{"type":"node","id":944312987,"lat":52.2725821,"lon":6.7193853},{"type":"node","id":944313036,"lat":52.2703764,"lon":6.7196474},{"type":"node","id":944313077,"lat":52.2724531,"lon":6.7188562},{"type":"node","id":944313099,"lat":52.2729573,"lon":6.7193137},{"type":"node","id":944313237,"lat":52.2730041,"lon":6.7193956},{"type":"node","id":944313350,"lat":52.2726821,"lon":6.7194842},{"type":"node","id":944313401,"lat":52.2702891,"lon":6.7193984},{"type":"node","id":6251576664,"lat":52.2712515,"lon":6.7221435},{"type":"node","id":6251576665,"lat":52.2711974,"lon":6.721989},{"type":"node","id":559607926,"lat":52.2649079,"lon":6.7253279},{"type":"node","id":559607927,"lat":52.2649102,"lon":6.7252623},{"type":"node","id":699951833,"lat":52.2652644,"lon":6.7258039},{"type":"node","id":699951837,"lat":52.2651817,"lon":6.7256855},{"type":"node","id":7762647723,"lat":52.2646212,"lon":6.7312766},{"type":"node","id":7762647724,"lat":52.2646453,"lon":6.7314877},{"type":"node","id":45963005,"lat":52.269727,"lon":6.7246645},{"type":"node","id":559607952,"lat":52.2697841,"lon":6.7248168},{"type":"node","id":5421437253,"lat":52.2694282,"lon":6.7286186},{"type":"node","id":5421437263,"lat":52.269546,"lon":6.7285519},{"type":"node","id":45990584,"lat":52.2773824,"lon":6.7160477},{"type":"node","id":559741066,"lat":52.2772847,"lon":6.7155886},{"type":"node","id":559741069,"lat":52.277324,"lon":6.7156898},{"type":"node","id":674479239,"lat":52.2774003,"lon":6.716063},{"type":"node","id":689083125,"lat":52.2773676,"lon":6.7160392},{"type":"node","id":689083141,"lat":52.2774072,"lon":6.7161799},{"type":"node","id":689083142,"lat":52.2773755,"lon":6.7161959},{"type":"node","id":699928411,"lat":52.2773905,"lon":6.716188},{"type":"node","id":12147513042,"lat":52.2773994,"lon":6.7160477},{"type":"node","id":45978882,"lat":52.27405,"lon":6.74962},{"type":"node","id":45979289,"lat":52.27419,"lon":6.74868},{"type":"node","id":45945303,"lat":52.2654248,"lon":6.7506448},{"type":"node","id":45945370,"lat":52.2654411,"lon":6.7509139},{"type":"node","id":45947701,"lat":52.2660427,"lon":6.750539},{"type":"node","id":45947777,"lat":52.2660585,"lon":6.7508078},{"type":"node","id":4842555104,"lat":52.2474309,"lon":6.769299},{"type":"node","id":4842555105,"lat":52.2472686,"lon":6.7693669},{"type":"node","id":4842555109,"lat":52.2474458,"lon":6.7689927},{"type":"node","id":4842555110,"lat":52.2472654,"lon":6.7688964},{"type":"node","id":45872802,"lat":52.2474976,"lon":6.7892333},{"type":"node","id":45875628,"lat":52.2479808,"lon":6.7893732},{"type":"node","id":315581526,"lat":52.2479903,"lon":6.789289},{"type":"node","id":315581527,"lat":52.2475072,"lon":6.7891484},{"type":"node","id":315581544,"lat":52.2479714,"lon":6.7894568},{"type":"node","id":315581546,"lat":52.2474887,"lon":6.7893124},{"type":"node","id":12049829287,"lat":52.2477323,"lon":6.7893855},{"type":"node","id":12049829288,"lat":52.247741,"lon":6.7893044},{"type":"node","id":12049829289,"lat":52.2477527,"lon":6.7892209},{"type":"node","id":45882352,"lat":52.2499813,"lon":6.7671909},{"type":"node","id":45884935,"lat":52.2504165,"lon":6.7675855},{"type":"node","id":315581493,"lat":52.2500144,"lon":6.7670943},{"type":"node","id":315581494,"lat":52.2504474,"lon":6.7674957},{"type":"node","id":585347471,"lat":52.2499501,"lon":6.7672815},{"type":"node","id":585347472,"lat":52.2503831,"lon":6.7676828},{"type":"node","id":597448527,"lat":52.2549757,"lon":6.7640023},{"type":"node","id":597448528,"lat":52.2550363,"lon":6.76409},{"type":"node","id":7716896883,"lat":52.2545596,"lon":6.7674596},{"type":"node","id":7716896885,"lat":52.2541572,"lon":6.7687372},{"type":"node","id":7716896886,"lat":52.2541247,"lon":6.7686956},{"type":"node","id":7716896889,"lat":52.2543326,"lon":6.7682163},{"type":"node","id":7716896890,"lat":52.2542828,"lon":6.7681791},{"type":"node","id":7716896892,"lat":52.2544865,"lon":6.7674111},{"type":"node","id":7717044737,"lat":52.2544616,"lon":6.7676945},{"type":"node","id":7717044738,"lat":52.2544323,"lon":6.767675},{"type":"node","id":7717044744,"lat":52.2546696,"lon":6.7668185},{"type":"node","id":7717044745,"lat":52.2546322,"lon":6.7668044},{"type":"node","id":374458964,"lat":52.2589493,"lon":6.7656587},{"type":"node","id":615072519,"lat":52.2588187,"lon":6.7654405},{"type":"node","id":615072520,"lat":52.2588949,"lon":6.7654884},{"type":"node","id":3479410037,"lat":52.2589175,"lon":6.7657157},{"type":"node","id":12469779059,"lat":52.2574062,"lon":6.7698509},{"type":"node","id":12470751027,"lat":52.2581541,"lon":6.767927},{"type":"node","id":12470751028,"lat":52.2582211,"lon":6.7680206},{"type":"node","id":12470702826,"lat":52.2574918,"lon":6.7699056},{"type":"node","id":12470772034,"lat":52.2570559,"lon":6.7712186},{"type":"node","id":12470772035,"lat":52.2571265,"lon":6.7712715},{"type":"node","id":597448829,"lat":52.251844,"lon":6.780064},{"type":"node","id":597448830,"lat":52.2519163,"lon":6.7800702},{"type":"node","id":597448925,"lat":52.2517132,"lon":6.7815831},{"type":"node","id":597448927,"lat":52.2517951,"lon":6.7815989},{"type":"node","id":5101831375,"lat":52.2518064,"lon":6.7805192},{"type":"node","id":5101831376,"lat":52.251796,"lon":6.780473},{"type":"node","id":5101831377,"lat":52.2517833,"lon":6.7804258},{"type":"node","id":13257357038,"lat":52.2514762,"lon":6.7820879},{"type":"node","id":13257357039,"lat":52.2514696,"lon":6.7820822},{"type":"node","id":13257357096,"lat":52.2513902,"lon":6.7822611},{"type":"node","id":13257357097,"lat":52.2514004,"lon":6.7822254},{"type":"node","id":4291461089,"lat":52.2537433,"lon":6.7934855},{"type":"node","id":4291461090,"lat":52.2537778,"lon":6.7935352},{"type":"node","id":7527306978,"lat":52.2586368,"lon":6.791412},{"type":"node","id":8078100367,"lat":52.2586033,"lon":6.7914642},{"type":"node","id":2207317022,"lat":52.2630198,"lon":6.7650184},{"type":"node","id":2207317024,"lat":52.2637335,"lon":6.7648135},{"type":"node","id":3790235640,"lat":52.2736102,"lon":6.7734655},{"type":"node","id":3790235649,"lat":52.2736431,"lon":6.7734972},{"type":"node","id":3790235656,"lat":52.2735217,"lon":6.7735537},{"type":"node","id":3790243657,"lat":52.2735547,"lon":6.7735852},{"type":"node","id":5981736645,"lat":52.274416,"lon":6.7763749},{"type":"node","id":1992924883,"lat":52.2637493,"lon":6.780269},{"type":"node","id":1992924886,"lat":52.2638016,"lon":6.7803527},{"type":"node","id":3788072534,"lat":52.2619955,"lon":6.7810267},{"type":"node","id":3788072535,"lat":52.261992,"lon":6.7808954},{"type":"node","id":3789124551,"lat":52.2658979,"lon":6.7811048},{"type":"node","id":3789124554,"lat":52.2661851,"lon":6.7808868},{"type":"node","id":3790235652,"lat":52.2661664,"lon":6.7808366},{"type":"node","id":3790243660,"lat":52.2659166,"lon":6.7811547},{"type":"node","id":45953674,"lat":52.2672791,"lon":6.7886617},{"type":"node","id":597777783,"lat":52.2681187,"lon":6.7888554},{"type":"node","id":1483923736,"lat":52.2673772,"lon":6.7864533},{"type":"node","id":1483923738,"lat":52.2674527,"lon":6.7866317},{"type":"node","id":3786207510,"lat":52.2621269,"lon":6.7873414},{"type":"node","id":3786207526,"lat":52.2621649,"lon":6.7870149},{"type":"node","id":3787616566,"lat":52.2621808,"lon":6.7873385},{"type":"node","id":3787616567,"lat":52.2621164,"lon":6.7870215},{"type":"node","id":3789121040,"lat":52.2626412,"lon":6.7872394},{"type":"node","id":3789121042,"lat":52.2626732,"lon":6.7872538},{"type":"node","id":3789124508,"lat":52.2640318,"lon":6.7831478},{"type":"node","id":3789124511,"lat":52.2640833,"lon":6.7830685},{"type":"node","id":3790235642,"lat":52.2640562,"lon":6.7831901},{"type":"node","id":3790235650,"lat":52.2626172,"lon":6.7873821},{"type":"node","id":3790235655,"lat":52.2626492,"lon":6.787396},{"type":"node","id":3790243659,"lat":52.2641078,"lon":6.783111},{"type":"node","id":4356480839,"lat":52.2673515,"lon":6.7886779},{"type":"node","id":2719517343,"lat":52.2729951,"lon":6.7789455},{"type":"node","id":2719517350,"lat":52.2730668,"lon":6.7790485},{"type":"node","id":3790235644,"lat":52.2692568,"lon":6.7778631},{"type":"node","id":3790235645,"lat":52.2692413,"lon":6.7778131},{"type":"node","id":3790235648,"lat":52.2690168,"lon":6.7781021},{"type":"node","id":3790243658,"lat":52.2690013,"lon":6.7780519},{"type":"node","id":5099280520,"lat":52.2735065,"lon":6.7780624},{"type":"node","id":5099280621,"lat":52.2735604,"lon":6.7781338},{"type":"node","id":5981736653,"lat":52.2744032,"lon":6.7765517},{"type":"node","id":597777791,"lat":52.2682524,"lon":6.7888868},{"type":"node","id":665788845,"lat":52.2683642,"lon":6.7858921},{"type":"node","id":1483923751,"lat":52.2684236,"lon":6.7860363},{"type":"node","id":1483923756,"lat":52.2695425,"lon":6.7853413},{"type":"node","id":1483923757,"lat":52.2695741,"lon":6.7855263},{"type":"node","id":13438077371,"lat":52.2698142,"lon":6.7853475},{"type":"node","id":13438077372,"lat":52.2698181,"lon":6.7854797},{"type":"node","id":2447646573,"lat":52.2792596,"lon":6.7682373},{"type":"node","id":2447646576,"lat":52.2792544,"lon":6.7683007},{"type":"node","id":1698674336,"lat":52.2752303,"lon":6.7751717},{"type":"node","id":2505408322,"lat":52.2751822,"lon":6.7750898},{"type":"node","id":7320670942,"lat":52.2804286,"lon":6.7888272},{"type":"node","id":7320695890,"lat":52.2804603,"lon":6.7888083},{"type":"node","id":7678328589,"lat":52.2797253,"lon":6.7890042},{"type":"node","id":7684652990,"lat":52.2797701,"lon":6.7890139},{"type":"node","id":7685485065,"lat":52.2803557,"lon":6.7870084},{"type":"node","id":7685485066,"lat":52.2803355,"lon":6.7870739},{"type":"node","id":13502432255,"lat":52.2800153,"lon":6.7867485},{"type":"node","id":13502432256,"lat":52.2800369,"lon":6.7866841},{"type":"node","id":5184630513,"lat":52.2632222,"lon":6.7904401},{"type":"node","id":5184630514,"lat":52.2632856,"lon":6.7904945},{"type":"node","id":13251335233,"lat":52.2632287,"lon":6.7904457}]}}
