{"query_name":"03-bridges-waterworks","query_signature":"9b4433517568c0ff4bfd3fb35c80731237705d9c","tile_path":"69","payload":{"version":0.6,"generator":"Overpass API 0.7.62.11 87bfad18","osm3s":{"timestamp_osm_base":"2026-07-14T20:34:05Z","copyright":"The data included in this document is from www.openstreetmap.org. The data is made available under ODbL."},"elements":[{"type":"node","id":11230069204,"lat":51.9629793,"lon":6.2422936,"tags":{"waterway":"weir"}},{"type":"node","id":11613151495,"lat":51.9482428,"lon":6.2591325,"tags":{"waterway":"weir"}},{"type":"node","id":11620161518,"lat":51.9552911,"lon":6.2506718,"tags":{"waterway":"weir"}},{"type":"node","id":11627913068,"lat":51.9459905,"lon":6.230474,"tags":{"waterway":"weir"}},{"type":"node","id":11627913090,"lat":51.945859,"lon":6.2307956,"tags":{"waterway":"weir"}},{"type":"node","id":11627913347,"lat":51.9465594,"lon":6.2311812,"tags":{"waterway":"weir"}},{"type":"node","id":11627913350,"lat":51.9471346,"lon":6.2318987,"tags":{"waterway":"weir"}},{"type":"node","id":11627913356,"lat":51.9464727,"lon":6.2313647,"tags":{"waterway":"weir"}},{"type":"node","id":11627913359,"lat":51.9470418,"lon":6.232082,"tags":{"waterway":"weir"}},{"type":"node","id":11627913362,"lat":51.9457828,"lon":6.2309791,"tags":{"waterway":"weir"}},{"type":"node","id":11627913365,"lat":51.9463831,"lon":6.2315577,"tags":{"waterway":"weir"}},{"type":"node","id":11627913367,"lat":51.9469028,"lon":6.2323658,"tags":{"waterway":"weir"}},{"type":"node","id":11912291886,"lat":51.9441377,"lon":6.3020971,"tags":{"waterway":"weir"}},{"type":"way","id":6306646,"nodes":[4206970422,5062521214],"tags":{"bridge":"yes","description":"Winterswijk - Zevenaar","electrified":"no","gauge":"1435","layer":"1","maxspeed":"100","operator":"ProRail","passenger_lines":"1","railway":"rail","railway:atb":"yes","railway:atb-ng":"yes","railway:track_class":"C2","ref":"212","ref:ProRailID":"2889332.0","ref:ProRailSpoortak":"212_175V_34.0","source":"ProRail","source:date":"2014-01-03","usage":"branch"}},{"type":"way","id":6790483,"nodes":[44520292,3755019121,11229010178,3755019124,11229010179,44522166],"tags":{"bicycle":"no","bridge":"yes","highway":"tertiary","layer":"1","maxspeed":"80","name":"Braamtseweg","surface":"asphalt"}},{"type":"way","id":6790504,"nodes":[44519178,44520868],"tags":{"bicycle":"no","bridge":"yes","foot":"no","highway":"primary","lanes":"3","layer":"1","maxspeed":"80","mofa":"no","moped":"no","name":"Europaweg","official_ref":"N316","oneway":"yes","operator":"Provincie Gelderland","placement":"right_of:2","ref":"N316;N317","surface":"asphalt","turn:lanes":"left|through|through","zone:traffic":"NL:rural"}},{"type":"way","id":6790506,"nodes":[44521167,44518823],"tags":{"bicycle":"no","bridge":"yes","foot":"no","highway":"primary","lanes":"2","layer":"1","maxspeed":"80","mofa":"no","moped":"no","name":"Europaweg","official_ref":"N316","oneway":"yes","operator":"Provincie Gelderland","ref":"N316;N317","surface":"asphalt","turn:lanes":"left|through","zone:traffic":"NL:rural"}},{"type":"way","id":6790550,"nodes":[44629590,44630312],"tags":{"bicycle":"no","bridge":"yes","foot":"no","highway":"primary","lanes":"4","lanes:backward":"1","lanes:forward":"3","layer":"1","maxspeed":"50","name":"Europaweg","operator":"Gemeente Doetinchem","ref":"N316","surface":"asphalt","turn:lanes:forward":"through|through|right","zone:traffic":"NL:urban"}},{"type":"way","id":6790607,"nodes":[44630312,44631900],"tags":{"bicycle":"no","bridge":"movable","foot":"no","highway":"primary","lanes":"4","lanes:backward":"1","lanes:forward":"3","layer":"1","maxspeed":"50","name":"Europaweg","operator":"Gemeente Doetinchem","ref":"N316","surface":"asphalt","turn:lanes:forward":"through|through|right","zone:traffic":"NL:urban"}},{"type":"way","id":6790624,"nodes":[44523271,44523346],"tags":{"bridge":"yes","carriageway_ref":"Re","highway":"motorway","highway_authority_ref":"Rijksweg 18","highway_authority_ref:-2024-05":"Rijksweg 15","lanes":"2","layer":"1","lit":"no","maxspeed":"100","maxspeed:conditional":"130 @ (19:00-06:00)","oneway":"yes","operator":"Rijkswaterstaat","ref":"A18","surface":"asphalt","toll:hgv":"yes","zone:traffic":"NL:rural"}},{"type":"way","id":6790633,"nodes":[44523900,44523804],"tags":{"bridge":"yes","carriageway_ref":"Li","highway":"motorway","highway_authority_ref":"Rijksweg 18","highway_authority_ref:-2024-05":"Rijksweg 15","lanes":"2","layer":"1","lit":"no","maxspeed":"100","maxspeed:conditional":"130 @ (19:00-06:00)","oneway":"yes","operator":"Rijkswaterstaat","ref":"A18","surface":"asphalt","toll:hgv":"yes","zone:traffic":"NL:rural"}},{"type":"way","id":6790770,"nodes":[44517771,44519674],"tags":{"bicycle":"no","bridge":"yes","highway":"tertiary","layer":"1","maxspeed":"80","name":"Kilderseweg"}},{"type":"way","id":6791091,"nodes":[44642343,44644223],"tags":{"bicycle":"no","bridge":"yes","foot":"no","highway":"primary","lanes":"2","layer":"1","maxspeed":"50","maxweight:signed":"no","name":"Energieweg","operator":"Gemeente Doetinchem","ref":"N317","surface":"asphalt","zone:traffic":"NL:urban"}},{"type":"way","id":6792212,"nodes":[44522933,44524871],"tags":{"bridge":"yes","highway":"unclassified","layer":"1","maxspeed":"60","name":"Rozenpas","smoothness":"good","surface":"asphalt"}},{"type":"way","id":29240421,"nodes":[321602950,7574982598,7574982599,321602951],"tags":{"bicycle":"use_sidepath","bridge":"yes","foot":"use_sidepath","highway":"secondary","lanes":"2","layer":"1","maxspeed":"30","name":"Bedrijvenweg","surface":"asphalt","traffic_sign":"NL:A01-30","zone:traffic":"NL:urban"}},{"type":"way","id":29503441,"nodes":[325211490,325211494],"tags":{"bridge":"yes","highway":"cycleway","layer":"1","lit":"yes","loc_name":"Fietsersbrug","mofa":"yes","moped":"no","name":"Oude IJsselbrug","oneway":"no","sidewalk":"separate","smoothness":"good","surface":"paving_stones","traffic_sign":"NL:G11","width":"6"}},{"type":"way","id":29503455,"nodes":[325211701,325211702],"tags":{"bicycle":"no","bridge":"yes","foot":"no","highway":"tertiary","layer":"1","maxspeed":"50","name":"Plattenburgstraat","zone:traffic":"NL:urban"}},{"type":"way","id":29503457,"nodes":[325211704,44611240,325211703],"tags":{"bicycle":"no","bridge":"yes","foot":"no","highway":"tertiary","layer":"1","maxspeed":"50","name":"Plattenburgstraat"}},{"type":"way","id":33755750,"nodes":[11232651971,386186959],"tags":{"bicycle":"designated","bridge":"yes","foot":"designated","highway":"cycleway","layer":"1","level":"1"}},{"type":"way","id":46627559,"nodes":[595817357,595817364],"tags":{"bridge":"yes","highway":"cycleway","layer":"1","mofa":"yes","moped":"no","name":"Energieweg","traffic_sign":"NL:G11"}},{"type":"way","id":59546138,"nodes":[2460223126,1977874605],"tags":{"bridge":"yes","highway":"cycleway","layer":"1"}},{"type":"way","id":59546152,"nodes":[738586088,738585913],"tags":{"bicycle":"designated","bridge":"yes","foot":"designated","highway":"cycleway","layer":"1"}},{"type":"way","id":59546170,"nodes":[738585772,738585922],"tags":{"bridge":"yes","foot":"yes","highway":"cycleway","layer":"1","oneway":"no"}},{"type":"way","id":60207270,"nodes":[747815389,369007858],"tags":{"bicycle":"designated","bridge":"yes","foot":"designated","highway":"cycleway","layer":"1"}},{"type":"way","id":60390385,"nodes":[751825415,751825418],"tags":{"bridge":"yes","foot":"yes","highway":"cycleway","layer":"1","mofa":"no","moped":"no","sidewalk":"no","smoothness":"good","surface":"wood","traffic_sign":"NL:G13"}},{"type":"way","id":60390388,"nodes":[751825411,751825410],"tags":{"bridge":"yes","highway":"cycleway","layer":"1","mofa":"no","moped":"no","sidewalk":"no","smoothness":"intermediate","surface":"wood","traffic_sign":"NL:G13"}},{"type":"way","id":61224350,"nodes":[321602894,5062521212],"tags":{"bridge":"yes","bridge:name":"Saap Roelofsbrug","foot":"yes","highway":"cycleway","layer":"1","mofa":"yes","moped":"no","oneway":"no","surface":"asphalt","traffic_sign":"NL:G11"}},{"type":"way","id":122995318,"nodes":[1372364191,1372776511],"tags":{"bridge":"yes","foot":"yes","highway":"cycleway","layer":"1","mofa":"yes","moped":"designated","oneway":"yes","traffic_sign":"NL:G12a"}},{"type":"way","id":122995319,"nodes":[1372364172,1372364133],"tags":{"bridge":"yes","foot":"yes","highway":"cycleway","layer":"1","mofa":"yes","moped":"designated","oneway":"yes","surface":"asphalt","traffic_sign":"NL:G12a"}},{"type":"way","id":164247591,"nodes":[1758964683,3755023125,11229010142,3755019122,1758964681],"tags":{"bridge":"yes","foot":"yes","highway":"cycleway","layer":"1","mofa":"designated","moped":"designated","name":"Braamtseweg","oneway":"yes","segregated":"no","smoothness":"good","surface":"asphalt","traffic_sign":"NL:G12a"}},{"type":"way","id":164247593,"nodes":[1758964680,3755019120,11229010245,3755019123,6362268406,1758964682],"tags":{"bridge":"yes","foot":"yes","highway":"cycleway","layer":"1","mofa":"designated","moped":"designated","name":"Braamtseweg","oneway":"yes","segregated":"no","smoothness":"good","surface":"asphalt","traffic_sign":"NL:G12a"}},{"type":"way","id":164368266,"nodes":[1760070900,1760070903],"tags":{"bicycle":"no","bridge":"yes","highway":"tertiary","lane_markings":"yes","lane_markings:surface":"paving_stones","lanes":"2","lanes:backward":"1","lanes:forward":"1","layer":"1","maxspeed":"50","name":"C Missetstraat","surface":"asphalt"}},{"type":"way","id":172341741,"nodes":[1832530977,1832530986],"tags":{"bridge":"yes","highway":"cycleway","layer":"1","lit":"yes","mofa":"yes","moped":"no","name":"C Missetstraat","oneway":"yes","segregated":"no","smoothness":"good","surface":"paving_stones","traffic_sign":"NL:G11"}},{"type":"way","id":172341743,"nodes":[1832530978,1832530976],"tags":{"bridge":"yes","highway":"cycleway","layer":"1","lit":"yes","mofa":"yes","moped":"no","name":"C Missetstraat","oneway":"yes","segregated":"yes","sidewalk":"right","smoothness":"good","surface":"paving_stones","traffic_sign":"NL:G11"}},{"type":"way","id":261375521,"nodes":[2669952032,2669952034,2669951694,2669951697,2669951665,2669951678,2669951710,2669951713,2669952079,2669952082,2669952132,2669952117,2669952032],"tags":{"building":"service","man_made":"pumping_station","name":"Rioolgemaal Europaweg","ref:bag":"0222100000609254","source":"BAG","source:date":"2014-02-11","start_date":"1995","substance":"sewage"}},{"type":"way","id":282124434,"nodes":[2860631813,2860631806],"tags":{"bicycle":"designated","bridge":"yes","foot":"designated","highway":"cycleway","layer":"1","surface":"paved"}},{"type":"way","id":360011254,"nodes":[3646109667,4831431301,3646109668,3646109670],"tags":{"bridge":"yes","highway":"cycleway","layer":"1","mofa":"yes","moped":"no","name":"Vijverlaan","segregated":"no","sidewalk":"no","surface":"asphalt","traffic_sign":"NL:G11"}},{"type":"way","id":371179165,"nodes":[3747720161,3747720180],"tags":{"bridge":"yes","highway":"footway","layer":"1","lit":"yes","loc_name":"Fietsersbrug","name":"Oude IJsselbrug","smoothness":"good","surface":"paving_stones"}},{"type":"way","id":371179166,"nodes":[3747720186,10296175448,3747720169],"tags":{"bridge":"yes","highway":"footway","layer":"1","lit":"yes","loc_name":"Fietsersbrug","name":"Oude IJsselbrug","smoothness":"good","surface":"paving_stones"}},{"type":"way","id":393913786,"nodes":[595517932,595517923],"tags":{"bridge":"yes","highway":"service","layer":"1","maxweight:signed":"no","service":"parking_aisle","surface":"paving_stones"}},{"type":"way","id":393913800,"nodes":[3968118749,3968118751],"tags":{"bridge":"yes","highway":"footway","layer":"1"}},{"type":"way","id":413867745,"nodes":[2669820107,4150968071],"tags":{"access":"no","bicycle":"yes","bridge":"yes","foot":"yes","highway":"pedestrian","layer":"1"}},{"type":"way","id":413898804,"nodes":[11234228631,4151176359],"tags":{"bridge":"yes","highway":"cycleway","layer":"1"}},{"type":"way","id":413898805,"nodes":[4151176361,4151176362],"tags":{"bridge":"yes","highway":"cycleway","layer":"1"}},{"type":"way","id":414784377,"nodes":[10033317058,10033317059],"tags":{"bridge":"yes","footway":"sidewalk","highway":"footway","layer":"1"}},{"type":"way","id":415283365,"nodes":[10060492361,732970436],"tags":{"bridge":"yes","highway":"footway","layer":"1"}},{"type":"way","id":420088214,"nodes":[4191750905,4191750906,4191750913],"tags":{"bridge":"yes","description":"Winterswijk - Zevenaar","electrified":"no","gauge":"1435","layer":"1","maxspeed":"120","operator":"ProRail","passenger_lines":"1","railway":"rail","railway:atb":"yes","railway:atb-ng":"yes","railway:track_class":"C2","ref":"212","ref:ProRailID":"2889323.0","ref:ProRailSpoortak":"212_151V_27.5","source":"ProRail","source:date":"2014-01-03","usage":"branch"}},{"type":"way","id":420783942,"nodes":[4206963171,4206963172],"tags":{"bridge":"yes","description":"Winterswijk - Zevenaar","electrified":"no","gauge":"1435","layer":"1","maxspeed":"100","operator":"ProRail","passenger_lines":"1","railway":"rail","railway:atb":"yes","railway:atb-ng":"yes","railway:track_class":"C2","ref":"212","ref:ProRailID":"2889332.0","ref:ProRailSpoortak":"212_175V_34.0","source":"ProRail","source:date":"2014-01-03","usage":"branch"}},{"type":"way","id":420785217,"nodes":[3150373192,11293391995,3150373198],"tags":{"bridge":"yes","highway":"cycleway","layer":"1","moped":"no","surface":"asphalt"}},{"type":"way","id":468793885,"nodes":[4977464538,4977464537],"tags":{"bridge":"yes","highway":"path","layer":"1"}},{"type":"way","id":519123081,"nodes":[5062521215,4206970423],"tags":{"bridge":"yes","description":"Winterswijk - Zevenaar","electrified":"no","gauge":"1435","layer":"1","maxspeed":"100","operator":"ProRail","passenger_lines":"1","railway":"rail","railway:atb":"yes","railway:atb-ng":"yes","railway:track_class":"C2","ref":"212","ref:ProRailID":"2889332.0","ref:ProRailSpoortak":"212_175V_34.0","source":"ProRail","source:date":"2014-01-03","usage":"branch"}},{"type":"way","id":519123086,"nodes":[5062521214,5062521215],"tags":{"bridge":"movable","bridge:movable":"lift","description":"Winterswijk - Zevenaar","electrified":"no","gauge":"1435","layer":"1","maxspeed":"100","operator":"ProRail","passenger_lines":"1","railway":"rail","railway:atb":"yes","railway:atb-ng":"yes","railway:track_class":"C2","ref":"212","ref:ProRailID":"2889332.0","ref:ProRailSpoortak":"212_175V_34.0","source":"ProRail","source:date":"2014-01-03","usage":"branch"}},{"type":"way","id":519123087,"nodes":[5062521213,321602895],"tags":{"bridge":"yes","bridge:name":"Saap Roelofsbrug","foot":"yes","highway":"cycleway","layer":"1","mofa":"yes","moped":"no","oneway":"no","surface":"asphalt","traffic_sign":"NL:G11"}},{"type":"way","id":519123088,"nodes":[5062521212,5062521213],"tags":{"bridge":"movable","bridge:movable":"lift","bridge:name":"Saap Roelofsbrug","foot":"yes","highway":"cycleway","layer":"1","mofa":"yes","moped":"no","oneway":"no","surface":"asphalt","traffic_sign":"NL:G11"}},{"type":"way","id":741272021,"nodes":[6939482832,325211490,3747720169,732951604,732945071,11952552411,11952552466,11952552465,732971461,733014255,3747720186,325211494,3747720180,4158233556,732948773,732967079,11952552407,6939482832],"tags":{"bridge":"movable","bridge:structure":"beam","layer":"1","loc_name":"Fietsersbrug","man_made":"bridge","name":"Oude IJsselbrug"}},{"type":"way","id":803839544,"nodes":[7519196292,7519196291],"tags":{"bridge":"yes","highway":"path","layer":"1"}},{"type":"way","id":810210209,"nodes":[4206970423,7574928044,7574928043,7574928042,7574928041,4206970422,7574928040,11292028326,7574928039,4206970423],"tags":{"bridge":"movable","layer":"1","man_made":"bridge","name":"Oude IJsselspoorbrug"}},{"type":"way","id":810210210,"nodes":[321602894,7574928048,7574928047,321602895,7574928046,7574928045,321602894],"tags":{"bridge":"movable","layer":"1","man_made":"bridge","name":"Saap Roelofsbrug"}},{"type":"way","id":810210211,"nodes":[44629590,7574928052,7908837573,11537004221,11537004220,7574928051,44631900,7574928050,732999590,7908837574,7574928049,44629590],"tags":{"bridge":"movable","bridge:structure":"beam","layer":"1","man_made":"bridge","name":"Europabrug"}},{"type":"way","id":810210679,"nodes":[321602951,738585772,7574982612,7574982611,11228048753,7574982610,738585922,321602950,7574982609,11228049093,7574982608,11248054566,7574982607,321602951],"tags":{"bridge":"movable","layer":"1","man_made":"bridge","name":"Wijnbergsebrug"}},{"type":"way","id":831988425,"nodes":[7767862383,9631641877,7767862384,9631641878,7767878185,7767878186,9631641879,9631641880,7767878192,9631641859,7767878187,9631641882,7767878197,7767878191,7767878188,9631641857,9631641856,9631641875,7767878190,7767878189],"tags":{"bridge":"boardwalk","highway":"path","source":"streetlevel imagery","surface":"wood"}},{"type":"way","id":831988426,"nodes":[7767878192,7767878193],"tags":{"bridge":"boardwalk","highway":"path","source":"streetlevel imagery","surface":"wood"}},{"type":"way","id":890157926,"nodes":[8274154152,5262621680],"tags":{"bridge":"yes","highway":"cycleway","layer":"1","mofa":"no","moped":"no","traffic_sign":"NL:G13"}},{"type":"way","id":955812964,"nodes":[8846107742,8846107741],"tags":{"bridge":"yes","foot":"yes","highway":"cycleway","layer":"1","lit":"yes","mofa":"yes","moped":"no","name":"Belderstraat","oneway":"no","segregated":"no","smoothness":"good","surface":"asphalt","traffic_sign":"NL:G11"}},{"type":"way","id":1039329395,"nodes":[9570855314,9570855315],"tags":{"bridge":"yes","highway":"cycleway","layer":"1","surface":"wood"}},{"type":"way","id":1047449656,"nodes":[7767862383,9631641876,9631641860,9631641861,9631642269,9631641862,9631641881,9631641863,9631641864,9631641865,9631641866,9631641867,9631641868,9631642272,9631641869,9631641870,9631641871,9631641872,9631641873,9631641874,7767878189],"tags":{"bridge":"boardwalk","highway":"path","surface":"wood"}},{"type":"way","id":1047449657,"nodes":[9631641868,9631641883],"tags":{"bridge":"boardwalk","highway":"path","surface":"wood"}},{"type":"way","id":1047449658,"nodes":[9631641873,9631641901],"tags":{"bridge":"boardwalk","highway":"path","surface":"wood"}},{"type":"way","id":1047449659,"nodes":[9631642219,9631642220,9631642221,9631642222,9631642223,7767878193,9631641906,9631641907,9631641908,9631641909,9631641915,9631641916,9631642217,9631642218,9631641910,9631641911,9631641912,9631641913,9631641914,9631642219],"tags":{"bridge":"boardwalk","highway":"path","source":"survey","surface":"wood"}},{"type":"way","id":1047449660,"nodes":[9631642237,9631642238,9631642239,9631642240,9631642241,9630335020,9631642224,9631642225,9631642226,9631642231,9631642232,9631642233,9631642234,9631642235,9631642236,9631642227,9631642228,9631642229,9631642230,9631642237],"tags":{"bridge":"boardwalk","highway":"path","source":"survey","surface":"wood"}},{"type":"way","id":1047449661,"nodes":[9631642255,9631642256,9631642257,9631642258,9631642259,7767878196,9631642242,9631642243,9631642244,9631642245,9631642250,9631642251,9631642252,9631642253,9631642254,9631642246,9631642247,9631642248,9631642249,9631642255],"tags":{"bridge":"boardwalk","highway":"path","source":"survey","surface":"wood"}},{"type":"way","id":1050670590,"nodes":[4187998253,9655077066],"tags":{"bridge":"yes","highway":"path","layer":"1","material":"wood","surface":"paving_stones"}},{"type":"way","id":1210867772,"nodes":[11218814231,11218814230],"tags":{"bridge":"yes","description":"Winterswijk - Zevenaar","electrified":"no","gauge":"1435","layer":"1","maxspeed":"100","operator":"ProRail","passenger_lines":"1","railway":"rail","railway:atb":"yes","railway:atb-ng":"yes","railway:track_class":"C2","ref":"212","ref:ProRailID":"2889332.0","ref:ProRailSpoortak":"212_175V_34.0","source":"ProRail","source:date":"2014-01-03","usage":"branch"}},{"type":"way","id":1211041730,"nodes":[11220581896,747815545],"tags":{"bicycle":"designated","bridge":"yes","foot":"designated","highway":"cycleway","layer":"1"}},{"type":"way","id":1211065899,"nodes":[11220800119,11220800118],"tags":{"bicycle":"designated","bridge":"yes","foot":"designated","highway":"cycleway","layer":"1"}},{"type":"way","id":1211082027,"nodes":[11220932308,11220932307],"tags":{"bridge":"yes","highway":"footway","layer":"1"}},{"type":"way","id":1211082028,"nodes":[11220932309,11220932301],"tags":{"bridge":"yes","highway":"footway","layer":"1"}},{"type":"way","id":1211094609,"nodes":[11221150295,6071832823],"tags":{"bridge":"yes","highway":"path","layer":"1"}},{"type":"way","id":1211126953,"nodes":[11221443630,11218720882,11221443631,2460223126,11221443632,11221443628,11224826423,11221443633,1977874605,11221443630],"tags":{"bridge":"viaduct","layer":"1","man_made":"bridge"}},{"type":"way","id":1211126962,"nodes":[11221443668,11221443669],"tags":{"bridge":"yes","highway":"footway","layer":"1","surface":"metal"}},{"type":"way","id":1211126967,"nodes":[11221443675,11221443676],"tags":{"bridge":"yes","highway":"footway","layer":"1","surface":"metal"}},{"type":"way","id":1211313887,"nodes":[11223019368,11223019369],"tags":{"bridge":"yes","highway":"residential","layer":"1","maxspeed":"30","name":"Karpaten","zone:traffic":"NL:urban"}},{"type":"way","id":1211317471,"nodes":[11223033708,11223033709],"tags":{"bridge":"yes","highway":"residential","layer":"1","maxspeed":"30","name":"Jura","zone:traffic":"NL:urban"}},{"type":"way","id":1211317475,"nodes":[11223033714,11223033715],"tags":{"bridge":"yes","highway":"residential","layer":"1","maxspeed":"30","name":"Apennijnen","zone:traffic":"NL:urban"}},{"type":"way","id":1211317481,"nodes":[11223033727,11223033728],"tags":{"bridge":"yes","highway":"residential","layer":"1","maxspeed":"30","name":"Alpen","zone:traffic":"NL:urban"}},{"type":"way","id":1211374317,"nodes":[11223611299,11223611298],"tags":{"bridge":"yes","highway":"residential","layer":"1","maxspeed":"30","name":"Ardennen","surface":"paving_stones"}},{"type":"way","id":1211375513,"nodes":[11223627360,5246283805],"tags":{"bicycle":"no","bridge":"yes","foot":"no","highway":"primary","lanes":"1","layer":"1","maxspeed":"50","mofa":"no","name":"Europaweg","oneway":"yes","operator":"Gemeente Doetinchem","ref":"N316;N317","surface":"asphalt","zone:traffic":"NL:urban"}},{"type":"way","id":1211375514,"nodes":[11223627359,5246283805],"tags":{"bicycle":"no","bridge":"yes","foot":"no","highway":"primary","lanes":"1","layer":"1","maxspeed":"50","mofa":"no","name":"Europaweg","oneway":"yes","operator":"Gemeente Doetinchem","ref":"N316;N317","surface":"asphalt","zone:traffic":"NL:urban"}},{"type":"way","id":1211375515,"nodes":[5246283811,11223627362],"tags":{"bicycle":"no","bridge":"yes","foot":"no","highway":"primary","lanes":"1","layer":"1","maxspeed":"50","mofa":"no","name":"Europaweg","oneway":"yes","operator":"Gemeente Doetinchem","ref":"N316;N317","surface":"asphalt","turn:lanes":"through;right","zone:traffic":"NL:urban"}},{"type":"way","id":1211375516,"nodes":[5246283811,11223627361],"tags":{"bicycle":"no","bridge":"yes","foot":"no","highway":"primary","lanes":"1","layer":"1","maxspeed":"50","mofa":"no","name":"Europaweg","oneway":"yes","operator":"Gemeente Doetinchem","ref":"N316;N317","surface":"asphalt","turn:lanes":"left;through","zone:traffic":"NL:urban"}},{"type":"way","id":1212058258,"nodes":[11229054846,11229054842,732965615,11229054844,732935152,732936728,44519178,732962994,732975509,11229054845,732961784,732953047,44520868,11229054846],"tags":{"bridge":"viaduct","layer":"1","man_made":"bridge","start_date":"1972"}},{"type":"way","id":1212058259,"nodes":[11229054847,11229054848,732970893,11229054849,732942100,11229054850,44518823,11229054851,732951701,11229054852,732943486,11229054847],"tags":{"bridge":"viaduct","layer":"1","man_made":"bridge","start_date":"1972"}},{"type":"way","id":1212127521,"nodes":[11229925274,11229925273],"tags":{"bicycle":"designated","bridge":"yes","foot":"designated","highway":"cycleway","layer":"1","oneway":"no","segregated":"no"}},{"type":"way","id":1212130712,"nodes":[11229969021,11229969022],"tags":{"bicycle":"designated","bridge":"yes","foot":"designated","highway":"cycleway","layer":"1"}},{"type":"way","id":1212500845,"nodes":[325211623,325211618],"tags":{"bicycle":"no","bridge":"yes","foot":"no","highway":"secondary","lanes":"2","layer":"1","maxspeed":"50","name":"Liemersweg","operator":"Gemeente Doetinchem","surface":"asphalt","zone:traffic":"NL:urban"}},{"type":"way","id":1219102345,"nodes":[11296447457,11296447458],"tags":{"bridge":"yes","check_date":"2025-06-02","highway":"residential","layer":"1","name":"Het Eiland","zone:traffic":"NL:urban"}},{"type":"way","id":1219813555,"nodes":[11302773732,11302773733],"tags":{"bridge":"yes","highway":"footway","layer":"1"}},{"type":"way","id":1223966586,"nodes":[11352762563,11352762564,11352762565],"tags":{"bridge":"boardwalk","highway":"path","surface":"wood"}},{"type":"way","id":1232466624,"nodes":[11432461571,11432461570],"tags":{"bridge":"yes","highway":"footway","layer":"1"}},{"type":"way","id":1246073455,"nodes":[11584418355,11584418357],"tags":{"bridge":"yes","highway":"track","layer":"1","tracktype":"grade2"}},{"type":"way","id":1248115558,"nodes":[11602144297,11602144298,44522933,11602144278,733613520,733609305,11602144279,44524871,11602144280,733621972,733630457,733617404,11602144297],"tags":{"bridge":"viaduct","layer":"1","man_made":"bridge","start_date":"1974"}},{"type":"way","id":1249282853,"nodes":[11611404017,1372364133,11611765003,11611765004,44517771,11611764933,11611764934,1372364191,732987904,732962991,732987806,732936136,1372776511,11611765126,11611765139,44519674,11611765125,11611765102,1372364172,732945879,732992946,11611404017],"tags":{"bridge":"viaduct","layer":"1","man_made":"bridge","start_date":"1973"}},{"type":"way","id":1251140064,"nodes":[11630288823,7561660979],"tags":{"bridge":"yes","highway":"footway","layer":"1","lit":"no","surface":"grass"}},{"type":"way","id":1251140076,"nodes":[11630288854,11630288853],"tags":{"bridge":"yes","highway":"footway","layer":"1","lit":"no","surface":"grass"}},{"type":"way","id":1263861085,"nodes":[11742110586,11742110587],"tags":{"bridge":"yes","highway":"footway","layer":"1","smoothness":"good","surface":"wood"}},{"type":"way","id":1266822511,"nodes":[7767878189,7767862382],"tags":{"bridge":"boardwalk","highway":"path","source":"streetlevel imagery","surface":"wood"}},{"type":"way","id":1380122168,"nodes":[12777361995,12777361996],"tags":{"bridge":"yes","highway":"footway","layer":"1","name":"Het Eiland","zone:traffic":"NL:urban"}},{"type":"way","id":1380122172,"nodes":[12777361994,12777365206],"tags":{"bridge":"yes","highway":"path","layer":"1","name":"Het Eiland","zone:traffic":"NL:urban"}},{"type":"way","id":1427341636,"nodes":[13121492841,13121492829,13121492830,13121492831,13121492832,13121492833,13121492834,13121492835,13121492836,13121492837,13121492838,13121492839,13121492840,7760232206],"tags":{"bridge":"yes","highway":"footway","layer":"0","name":"Flaneersteiger","surface":"wood"}},{"type":"way","id":1427341637,"nodes":[13121492822,13121492823,13121492824,13121492825,13121492826,13121492827,13121492828,13121492841],"tags":{"bridge":"yes","highway":"footway","layer":"0","name":"Flaneersteiger"}},{"type":"node","id":44522933,"lat":51.9440046,"lon":6.2400133},{"type":"node","id":44524871,"lat":51.9445358,"lon":6.2400814},{"type":"node","id":733609305,"lat":51.9443895,"lon":6.240013},{"type":"node","id":733613520,"lat":51.9441352,"lon":6.2399804},{"type":"node","id":733617404,"lat":51.9441354,"lon":6.2400797},{"type":"node","id":733621972,"lat":51.944517,"lon":6.2401285},{"type":"node","id":733630457,"lat":51.9443854,"lon":6.2401116},{"type":"node","id":11602144278,"lat":51.944007,"lon":6.239964},{"type":"node","id":11602144279,"lat":51.9445382,"lon":6.2400321},{"type":"node","id":11602144280,"lat":51.9445334,"lon":6.2401306},{"type":"node","id":11602144297,"lat":51.9440022,"lon":6.2400626},{"type":"node","id":11602144298,"lat":51.9440027,"lon":6.2400536},{"type":"node","id":44517771,"lat":51.9429703,"lon":6.2624475},{"type":"node","id":44519674,"lat":51.9434491,"lon":6.2631597},{"type":"node","id":732936136,"lat":51.9434491,"lon":6.2633138},{"type":"node","id":732945879,"lat":51.943449,"lon":6.2630056},{"type":"node","id":732962991,"lat":51.9430857,"lon":6.2627852},{"type":"node","id":732987806,"lat":51.9433662,"lon":6.2631932},{"type":"node","id":732987904,"lat":51.9429667,"lon":6.2626122},{"type":"node","id":732992946,"lat":51.9433682,"lon":6.2628822},{"type":"node","id":1372364133,"lat":51.9429732,"lon":6.262317},{"type":"node","id":1372364172,"lat":51.943449,"lon":6.2630432},{"type":"node","id":1372364191,"lat":51.9429674,"lon":6.2625785},{"type":"node","id":1372776511,"lat":51.9434491,"lon":6.2632844},{"type":"node","id":11611404017,"lat":51.942974,"lon":6.2622804},{"type":"node","id":11611764933,"lat":51.9429686,"lon":6.262525},{"type":"node","id":11611764934,"lat":51.9429682,"lon":6.2625447},{"type":"node","id":11611765003,"lat":51.9429724,"lon":6.2623537},{"type":"node","id":11611765004,"lat":51.942972,"lon":6.2623699},{"type":"node","id":11611765102,"lat":51.943449,"lon":6.2630746},{"type":"node","id":11611765125,"lat":51.943449,"lon":6.2630888},{"type":"node","id":11611765126,"lat":51.9434491,"lon":6.2632552},{"type":"node","id":11611765139,"lat":51.9434491,"lon":6.2632411},{"type":"node","id":11432461570,"lat":51.9375951,"lon":6.2717909},{"type":"node","id":11432461571,"lat":51.9375027,"lon":6.2717709},{"type":"node","id":44518823,"lat":51.9432313,"lon":6.2734176},{"type":"node","id":44519178,"lat":51.9432443,"lon":6.273851},{"type":"node","id":44520868,"lat":51.9437439,"lon":6.2739011},{"type":"node","id":44521167,"lat":51.9437294,"lon":6.2734576},{"type":"node","id":732935152,"lat":51.9433309,"lon":6.2737203},{"type":"node","id":732936728,"lat":51.9432427,"lon":6.2737132},{"type":"node","id":732942100,"lat":51.9433177,"lon":6.2733064},{"type":"node","id":732943486,"lat":51.9436463,"lon":6.2735741},{"type":"node","id":732951701,"lat":51.9433265,"lon":6.273549},{"type":"node","id":732953047,"lat":51.9437433,"lon":6.2739995},{"type":"node","id":732961784,"lat":51.9436536,"lon":6.27399},{"type":"node","id":732962994,"lat":51.9432464,"lon":6.2739455},{"type":"node","id":732965615,"lat":51.9436494,"lon":6.273751},{"type":"node","id":732970893,"lat":51.9436428,"lon":6.2733419},{"type":"node","id":732975509,"lat":51.943337,"lon":6.2739576},{"type":"node","id":11229054842,"lat":51.9437393,"lon":6.2737601},{"type":"node","id":11229054844,"lat":51.9434711,"lon":6.2737338},{"type":"node","id":11229054845,"lat":51.9434967,"lon":6.2739712},{"type":"node","id":11229054846,"lat":51.9437398,"lon":6.273777},{"type":"node","id":11229054847,"lat":51.9437329,"lon":6.2735854},{"type":"node","id":11229054848,"lat":51.943724,"lon":6.2733484},{"type":"node","id":11229054849,"lat":51.9434762,"lon":6.2733246},{"type":"node","id":11229054850,"lat":51.9432279,"lon":6.2732996},{"type":"node","id":11229054851,"lat":51.9432347,"lon":6.2735366},{"type":"node","id":11229054852,"lat":51.9434893,"lon":6.2735593},{"type":"node","id":44520292,"lat":51.9434126,"lon":6.2807593},{"type":"node","id":44522166,"lat":51.9440504,"lon":6.2811662},{"type":"node","id":1758964680,"lat":51.9434171,"lon":6.2808623},{"type":"node","id":1758964681,"lat":51.9434297,"lon":6.2806664},{"type":"node","id":1758964682,"lat":51.9440357,"lon":6.2812524},{"type":"node","id":1758964683,"lat":51.9440114,"lon":6.2810197},{"type":"node","id":3755019120,"lat":51.9435813,"lon":6.2809378},{"type":"node","id":3755019121,"lat":51.9435981,"lon":6.280852},{"type":"node","id":3755019122,"lat":51.9436132,"lon":6.2807575},{"type":"node","id":3755019123,"lat":51.9437632,"lon":6.2810417},{"type":"node","id":3755019124,"lat":51.9438406,"lon":6.2810044},{"type":"node","id":3755023125,"lat":51.9438828,"lon":6.280923},{"type":"node","id":6362268406,"lat":51.9438906,"lon":6.2811342},{"type":"node","id":11229010142,"lat":51.9437268,"lon":6.2808233},{"type":"node","id":11229010178,"lat":51.9437195,"lon":6.2809222},{"type":"node","id":11229010179,"lat":51.9439511,"lon":6.2810853},{"type":"node","id":11229010245,"lat":51.9436936,"lon":6.2809964},{"type":"node","id":7561660979,"lat":51.9543256,"lon":6.241571},{"type":"node","id":11630288823,"lat":51.9543,"lon":6.2415677},{"type":"node","id":11630288853,"lat":51.954423,"lon":6.2423575},{"type":"node","id":11630288854,"lat":51.9544535,"lon":6.2423543},{"type":"node","id":738585913,"lat":51.9508024,"lon":6.2640175},{"type":"node","id":738586088,"lat":51.9510635,"lon":6.2641216},{"type":"node","id":1977874605,"lat":51.9558268,"lon":6.260906},{"type":"node","id":2460223126,"lat":51.9558487,"lon":6.2611964},{"type":"node","id":11218720882,"lat":51.9558437,"lon":6.2609676},{"type":"node","id":11221443628,"lat":51.9558349,"lon":6.2611838},{"type":"node","id":11221443630,"lat":51.9558389,"lon":6.2609036},{"type":"node","id":11221443631,"lat":51.9558605,"lon":6.261194},{"type":"node","id":11221443632,"lat":51.955836,"lon":6.2611988},{"type":"node","id":11221443633,"lat":51.9558144,"lon":6.2609084},{"type":"node","id":11221443668,"lat":51.9553145,"lon":6.2613759},{"type":"node","id":11221443669,"lat":51.9552991,"lon":6.2613825},{"type":"node","id":11221443675,"lat":51.9547316,"lon":6.2615825},{"type":"node","id":11221443676,"lat":51.9547539,"lon":6.2615744},{"type":"node","id":11224826423,"lat":51.9558172,"lon":6.2609466},{"type":"node","id":11229925273,"lat":51.9623496,"lon":6.2451274},{"type":"node","id":11229925274,"lat":51.9625196,"lon":6.244899},{"type":"node","id":11229969021,"lat":51.9640577,"lon":6.2428905},{"type":"node","id":11229969022,"lat":51.9638846,"lon":6.2431162},{"type":"node","id":325211701,"lat":51.9641568,"lon":6.2508486},{"type":"node","id":325211702,"lat":51.9642761,"lon":6.2509615},{"type":"node","id":386186959,"lat":51.9658062,"lon":6.2512034},{"type":"node","id":2860631806,"lat":51.9608235,"lon":6.2471133},{"type":"node","id":2860631813,"lat":51.9609956,"lon":6.2468918},{"type":"node","id":7519196291,"lat":51.9602922,"lon":6.2458639},{"type":"node","id":7519196292,"lat":51.9602595,"lon":6.2457969},{"type":"node","id":11220932301,"lat":51.9662376,"lon":6.2484129},{"type":"node","id":11220932307,"lat":51.9657077,"lon":6.2489498},{"type":"node","id":11220932308,"lat":51.9658882,"lon":6.2488565},{"type":"node","id":11220932309,"lat":51.9664785,"lon":6.2482214},{"type":"node","id":11232651971,"lat":51.965881,"lon":6.2512797},{"type":"node","id":11742110586,"lat":51.9706554,"lon":6.2429714},{"type":"node","id":11742110587,"lat":51.970665,"lon":6.2430199},{"type":"node","id":11220800118,"lat":51.9672851,"lon":6.2493742},{"type":"node","id":11220800119,"lat":51.9672447,"lon":6.2492468},{"type":"node","id":747815545,"lat":51.9638093,"lon":6.2545965},{"type":"node","id":11220581896,"lat":51.9639098,"lon":6.2547068},{"type":"node","id":44611240,"lat":51.9613947,"lon":6.2648511},{"type":"node","id":325211618,"lat":51.9658427,"lon":6.2637184},{"type":"node","id":325211623,"lat":51.9657135,"lon":6.2639296},{"type":"node","id":325211703,"lat":51.9614281,"lon":6.2649089},{"type":"node","id":325211704,"lat":51.9613479,"lon":6.2647278},{"type":"node","id":369007858,"lat":51.9621779,"lon":6.2627976},{"type":"node","id":747815389,"lat":51.9621156,"lon":6.2627579},{"type":"node","id":4151176359,"lat":51.9629644,"lon":6.2587663},{"type":"node","id":4151176361,"lat":51.9632219,"lon":6.2590628},{"type":"node","id":4151176362,"lat":51.9632662,"lon":6.2591366},{"type":"node","id":6071832823,"lat":51.9621652,"lon":6.2600082},{"type":"node","id":11221150295,"lat":51.9621665,"lon":6.2601118},{"type":"node","id":11234228631,"lat":51.9629239,"lon":6.2587283},{"type":"node","id":2669820107,"lat":51.9518696,"lon":6.2657629},{"type":"node","id":4150968071,"lat":51.9518457,"lon":6.2659908},{"type":"node","id":11223019368,"lat":51.9509402,"lon":6.2663625},{"type":"node","id":11223019369,"lat":51.9509431,"lon":6.2661627},{"type":"node","id":11223033708,"lat":51.9516286,"lon":6.2667205},{"type":"node","id":11223033709,"lat":51.9516858,"lon":6.266547},{"type":"node","id":11223033714,"lat":51.9522635,"lon":6.2677093},{"type":"node","id":11223033715,"lat":51.952152,"lon":6.2677757},{"type":"node","id":11223033727,"lat":51.9521762,"lon":6.2690611},{"type":"node","id":11223033728,"lat":51.9522985,"lon":6.2691068},{"type":"node","id":11223611298,"lat":51.9526924,"lon":6.2699346},{"type":"node","id":11223611299,"lat":51.9524928,"lon":6.2697837},{"type":"node","id":11584418355,"lat":51.9502601,"lon":6.2698484},{"type":"node","id":11584418357,"lat":51.9502747,"lon":6.2698061},{"type":"node","id":2669951665,"lat":51.9512155,"lon":6.2750534},{"type":"node","id":2669951678,"lat":51.9512262,"lon":6.2749633},{"type":"node","id":2669951694,"lat":51.9512371,"lon":6.2750829},{"type":"node","id":2669951697,"lat":51.9512399,"lon":6.2750611},{"type":"node","id":2669951710,"lat":51.9512507,"lon":6.2749709},{"type":"node","id":2669951713,"lat":51.9512532,"lon":6.2749495},{"type":"node","id":2669952032,"lat":51.9513366,"lon":6.2751217},{"type":"node","id":2669952034,"lat":51.9513374,"lon":6.2751148},{"type":"node","id":2669952079,"lat":51.9513533,"lon":6.2749807},{"type":"node","id":2669952082,"lat":51.9513541,"lon":6.274974},{"type":"node","id":2669952117,"lat":51.9513924,"lon":6.2751391},{"type":"node","id":2669952132,"lat":51.95141,"lon":6.2749914},{"type":"node","id":5246283805,"lat":51.9523345,"lon":6.2747778},{"type":"node","id":5246283811,"lat":51.9523141,"lon":6.2750003},{"type":"node","id":11223627359,"lat":51.95242,"lon":6.2748139},{"type":"node","id":11223627360,"lat":51.9524237,"lon":6.2747731},{"type":"node","id":11223627361,"lat":51.9524029,"lon":6.2749995},{"type":"node","id":11223627362,"lat":51.952399,"lon":6.2750417},{"type":"node","id":4206963171,"lat":51.9591126,"lon":6.270882},{"type":"node","id":4206963172,"lat":51.9591142,"lon":6.270823},{"type":"node","id":8846107741,"lat":51.9592652,"lon":6.2707705},{"type":"node","id":8846107742,"lat":51.95927,"lon":6.2708767},{"type":"node","id":11218814230,"lat":51.9591902,"lon":6.2680561},{"type":"node","id":11218814231,"lat":51.9591861,"lon":6.2682033},{"type":"node","id":321602950,"lat":51.9513183,"lon":6.2866308},{"type":"node","id":321602951,"lat":51.9517247,"lon":6.2873633},{"type":"node","id":738585772,"lat":51.9518032,"lon":6.2873562},{"type":"node","id":738585922,"lat":51.9513977,"lon":6.2866091},{"type":"node","id":7574982598,"lat":51.9513759,"lon":6.2867161},{"type":"node","id":7574982599,"lat":51.9514404,"lon":6.2868283},{"type":"node","id":7574982607,"lat":51.9516704,"lon":6.2873617},{"type":"node","id":7574982608,"lat":51.9514189,"lon":6.2868934},{"type":"node","id":7574982609,"lat":51.9512573,"lon":6.2866481},{"type":"node","id":7574982610,"lat":51.9514224,"lon":6.2866033},{"type":"node","id":7574982611,"lat":51.9518301,"lon":6.2873658},{"type":"node","id":7574982612,"lat":51.9518249,"lon":6.2873658},{"type":"node","id":11228048753,"lat":51.95146,"lon":6.2866736},{"type":"node","id":11228049093,"lat":51.9512992,"lon":6.2867117},{"type":"node","id":11248054566,"lat":51.95163,"lon":6.2872865},{"type":"node","id":11352762563,"lat":51.9515539,"lon":6.2895605},{"type":"node","id":11352762564,"lat":51.9516191,"lon":6.2895328},{"type":"node","id":11352762565,"lat":51.9516325,"lon":6.2896111},{"type":"node","id":732970436,"lat":51.9571725,"lon":6.2793806},{"type":"node","id":10060492361,"lat":51.9571436,"lon":6.279297},{"type":"node","id":321602894,"lat":51.9587463,"lon":6.2869293},{"type":"node","id":321602895,"lat":51.9587247,"lon":6.2877086},{"type":"node","id":1760070900,"lat":51.9586516,"lon":6.2895706},{"type":"node","id":1760070903,"lat":51.9587456,"lon":6.2895939},{"type":"node","id":1832530976,"lat":51.9586529,"lon":6.2895065},{"type":"node","id":1832530977,"lat":51.958642,"lon":6.2896362},{"type":"node","id":1832530978,"lat":51.9587304,"lon":6.2895263},{"type":"node","id":1832530986,"lat":51.9587476,"lon":6.2896604},{"type":"node","id":4206970422,"lat":51.9586431,"lon":6.2877211},{"type":"node","id":4206970423,"lat":51.9586664,"lon":6.2868977},{"type":"node","id":5062521212,"lat":51.9587384,"lon":6.2872342},{"type":"node","id":5062521213,"lat":51.9587343,"lon":6.2873768},{"type":"node","id":5062521214,"lat":51.9586527,"lon":6.2873731},{"type":"node","id":5062521215,"lat":51.9586569,"lon":6.2872202},{"type":"node","id":7574928039,"lat":51.9586467,"lon":6.2868964},{"type":"node","id":7574928040,"lat":51.9586254,"lon":6.2877135},{"type":"node","id":7574928041,"lat":51.958662,"lon":6.2877166},{"type":"node","id":7574928042,"lat":51.9586704,"lon":6.2873839},{"type":"node","id":7574928043,"lat":51.9586726,"lon":6.2873836},{"type":"node","id":7574928044,"lat":51.9586876,"lon":6.2868981},{"type":"node","id":7574928045,"lat":51.9587336,"lon":6.2869288},{"type":"node","id":7574928046,"lat":51.9587117,"lon":6.2877076},{"type":"node","id":7574928047,"lat":51.9587364,"lon":6.2877102},{"type":"node","id":7574928048,"lat":51.9587586,"lon":6.2869299},{"type":"node","id":11292028326,"lat":51.9586456,"lon":6.2869388},{"type":"node","id":12777361994,"lat":51.9594326,"lon":6.2881124},{"type":"node","id":12777361995,"lat":51.9601363,"lon":6.2887494},{"type":"node","id":12777361996,"lat":51.9601524,"lon":6.2885643},{"type":"node","id":12777365206,"lat":51.9596619,"lon":6.2878559},{"type":"node","id":595517923,"lat":51.9653058,"lon":6.2707568},{"type":"node","id":595517932,"lat":51.9654142,"lon":6.2703454},{"type":"node","id":3968118749,"lat":51.9639823,"lon":6.2706708},{"type":"node","id":3968118751,"lat":51.9639778,"lon":6.2704591},{"type":"node","id":9570855314,"lat":51.9611601,"lon":6.2671251},{"type":"node","id":9570855315,"lat":51.9611006,"lon":6.2670933},{"type":"node","id":751825410,"lat":51.9652101,"lon":6.2744628},{"type":"node","id":751825411,"lat":51.9650894,"lon":6.274314},{"type":"node","id":751825415,"lat":51.964244,"lon":6.2759484},{"type":"node","id":751825418,"lat":51.9643633,"lon":6.2761111},{"type":"node","id":4977464537,"lat":51.9623197,"lon":6.2768614},{"type":"node","id":4977464538,"lat":51.96239,"lon":6.2767189},{"type":"node","id":44642343,"lat":51.9673633,"lon":6.2713724},{"type":"node","id":595817357,"lat":51.9678756,"lon":6.2717501},{"type":"node","id":595817364,"lat":51.967383,"lon":6.2712802},{"type":"node","id":44644223,"lat":51.9678557,"lon":6.2718335},{"type":"node","id":44629590,"lat":51.9649612,"lon":6.2836972},{"type":"node","id":44630312,"lat":51.9650951,"lon":6.2838821},{"type":"node","id":44631900,"lat":51.9654511,"lon":6.2843736},{"type":"node","id":732999590,"lat":51.9652957,"lon":6.2843097},{"type":"node","id":7574928049,"lat":51.9649095,"lon":6.2837906},{"type":"node","id":7574928050,"lat":51.965407,"lon":6.2844594},{"type":"node","id":7574928051,"lat":51.9655102,"lon":6.2842556},{"type":"node","id":7574928052,"lat":51.9650063,"lon":6.2836024},{"type":"node","id":7767862382,"lat":51.9645245,"lon":6.2842759},{"type":"node","id":7767878187,"lat":51.964275,"lon":6.2846537},{"type":"node","id":7767878188,"lat":51.9644146,"lon":6.2845877},{"type":"node","id":7767878189,"lat":51.9645248,"lon":6.2843603},{"type":"node","id":7767878190,"lat":51.9645174,"lon":6.2844025},{"type":"node","id":7767878191,"lat":51.9643765,"lon":6.2845981},{"type":"node","id":7767878192,"lat":51.964228,"lon":6.2848011},{"type":"node","id":7767878193,"lat":51.964183,"lon":6.2848028},{"type":"node","id":7767878196,"lat":51.9644184,"lon":6.2844964},{"type":"node","id":7767878197,"lat":51.964341,"lon":6.2846121},{"type":"node","id":7908837573,"lat":51.9652328,"lon":6.283896},{"type":"node","id":7908837574,"lat":51.9651324,"lon":6.2840903},{"type":"node","id":9630335020,"lat":51.964234,"lon":6.2845919},{"type":"node","id":9631641856,"lat":51.9644834,"lon":6.284535},{"type":"node","id":9631641857,"lat":51.96445,"lon":6.2845725},{"type":"node","id":9631641859,"lat":51.9642468,"lon":6.2847185},{"type":"node","id":9631641865,"lat":51.9642385,"lon":6.2848835},{"type":"node","id":9631641866,"lat":51.9642432,"lon":6.284805},{"type":"node","id":9631641867,"lat":51.9642713,"lon":6.28471},{"type":"node","id":9631641868,"lat":51.9643006,"lon":6.2846626},{"type":"node","id":9631641869,"lat":51.964413,"lon":6.2846133},{"type":"node","id":9631641870,"lat":51.9644581,"lon":6.2845951},{"type":"node","id":9631641871,"lat":51.9644819,"lon":6.2845764},{"type":"node","id":9631641872,"lat":51.9645085,"lon":6.284533},{"type":"node","id":9631641873,"lat":51.9645274,"lon":6.284477},{"type":"node","id":9631641874,"lat":51.9645304,"lon":6.2844183},{"type":"node","id":9631641875,"lat":51.9645105,"lon":6.2844703},{"type":"node","id":9631641880,"lat":51.9642211,"lon":6.2848658},{"type":"node","id":9631641882,"lat":51.9643083,"lon":6.2846278},{"type":"node","id":9631641883,"lat":51.9643222,"lon":6.2847376},{"type":"node","id":9631641901,"lat":51.9645807,"lon":6.2844798},{"type":"node","id":9631641906,"lat":51.9641829,"lon":6.2848151},{"type":"node","id":9631641907,"lat":51.9641806,"lon":6.2848254},{"type":"node","id":9631641908,"lat":51.9641766,"lon":6.2848342},{"type":"node","id":9631641909,"lat":51.9641711,"lon":6.2848405},{"type":"node","id":9631641910,"lat":51.9641419,"lon":6.2848256},{"type":"node","id":9631641911,"lat":51.9641395,"lon":6.2848139},{"type":"node","id":9631641912,"lat":51.9641396,"lon":6.2848015},{"type":"node","id":9631641913,"lat":51.9641424,"lon":6.28479},{"type":"node","id":9631641914,"lat":51.9641474,"lon":6.2847807},{"type":"node","id":9631641915,"lat":51.9641647,"lon":6.2848438},{"type":"node","id":9631641916,"lat":51.9641579,"lon":6.2848439},{"type":"node","id":9631642217,"lat":51.9641515,"lon":6.2848406},{"type":"node","id":9631642218,"lat":51.964146,"lon":6.2848343},{"type":"node","id":9631642219,"lat":51.9641541,"lon":6.2847747},{"type":"node","id":9631642220,"lat":51.9641616,"lon":6.2847728},{"type":"node","id":9631642221,"lat":51.9641691,"lon":6.2847751},{"type":"node","id":9631642222,"lat":51.9641756,"lon":6.2847815},{"type":"node","id":9631642223,"lat":51.9641805,"lon":6.2847911},{"type":"node","id":9631642224,"lat":51.9642276,"lon":6.2845995},{"type":"node","id":9631642225,"lat":51.9642205,"lon":6.2846033},{"type":"node","id":9631642226,"lat":51.964213,"lon":6.2846031},{"type":"node","id":9631642227,"lat":51.9642016,"lon":6.2845368},{"type":"node","id":9631642228,"lat":51.9642083,"lon":6.2845302},{"type":"node","id":9631642229,"lat":51.9642161,"lon":6.2845275},{"type":"node","id":9631642230,"lat":51.9642239,"lon":6.2845292},{"type":"node","id":9631642231,"lat":51.9642058,"lon":6.2845991},{"type":"node","id":9631642232,"lat":51.9641999,"lon":6.2845917},{"type":"node","id":9631642233,"lat":51.9641957,"lon":6.2845816},{"type":"node","id":9631642234,"lat":51.9641937,"lon":6.2845698},{"type":"node","id":9631642235,"lat":51.964194,"lon":6.2845576},{"type":"node","id":9631642236,"lat":51.9641968,"lon":6.2845462},{"type":"node","id":9631642237,"lat":51.964231,"lon":6.284535},{"type":"node","id":9631642238,"lat":51.9642365,"lon":6.2845443},{"type":"node","id":9631642239,"lat":51.9642397,"lon":6.284556},{"type":"node","id":9631642240,"lat":51.9642404,"lon":6.2845688},{"type":"node","id":9631642241,"lat":51.9642384,"lon":6.2845812},{"type":"node","id":9631642242,"lat":51.9644253,"lon":6.2844938},{"type":"node","id":9631642243,"lat":51.9644317,"lon":6.2844872},{"type":"node","id":9631642244,"lat":51.9644364,"lon":6.2844774},{"type":"node","id":9631642245,"lat":51.9644388,"lon":6.2844656},{"type":"node","id":9631642246,"lat":51.9644092,"lon":6.2844263},{"type":"node","id":9631642247,"lat":51.964403,"lon":6.2844318},{"type":"node","id":9631642248,"lat":51.9643982,"lon":6.2844403},{"type":"node","id":9631642249,"lat":51.9643953,"lon":6.2844507},{"type":"node","id":9631642250,"lat":51.9644386,"lon":6.2844532},{"type":"node","id":9631642251,"lat":51.9644359,"lon":6.2844417},{"type":"node","id":9631642252,"lat":51.9644309,"lon":6.2844323},{"type":"node","id":9631642253,"lat":51.9644242,"lon":6.2844262},{"type":"node","id":9631642254,"lat":51.9644167,"lon":6.2844241},{"type":"node","id":9631642255,"lat":51.9643945,"lon":6.2844621},{"type":"node","id":9631642256,"lat":51.964396,"lon":6.2844734},{"type":"node","id":9631642257,"lat":51.9643995,"lon":6.2844833},{"type":"node","id":9631642258,"lat":51.9644048,"lon":6.2844909},{"type":"node","id":9631642259,"lat":51.9644113,"lon":6.2844954},{"type":"node","id":9631642272,"lat":51.9643511,"lon":6.2846349},{"type":"node","id":10033317058,"lat":51.9647632,"lon":6.2844922},{"type":"node","id":10033317059,"lat":51.9648058,"lon":6.2845561},{"type":"node","id":11537004220,"lat":51.9654452,"lon":6.2841713},{"type":"node","id":11537004221,"lat":51.9653931,"lon":6.2841038},{"type":"node","id":325211490,"lat":51.9640643,"lon":6.2855355},{"type":"node","id":325211494,"lat":51.9643377,"lon":6.286119},{"type":"node","id":732945071,"lat":51.9641344,"lon":6.285541},{"type":"node","id":732948773,"lat":51.9642752,"lon":6.286121},{"type":"node","id":732951604,"lat":51.9641052,"lon":6.2854828},{"type":"node","id":732967079,"lat":51.9640706,"lon":6.2856859},{"type":"node","id":732971461,"lat":51.964356,"lon":6.2860072},{"type":"node","id":733014255,"lat":51.9643822,"lon":6.286065},{"type":"node","id":3747720161,"lat":51.9640356,"lon":6.2855737},{"type":"node","id":3747720169,"lat":51.9640936,"lon":6.2854965},{"type":"node","id":3747720180,"lat":51.964309,"lon":6.2861543},{"type":"node","id":3747720186,"lat":51.964373,"lon":6.2860768},{"type":"node","id":4158233556,"lat":51.9642952,"lon":6.2861718},{"type":"node","id":6939482832,"lat":51.9640171,"lon":6.2855964},{"type":"node","id":7760232206,"lat":51.9628689,"lon":6.2877563},{"type":"node","id":7767862383,"lat":51.964117,"lon":6.2852802},{"type":"node","id":7767862384,"lat":51.9641765,"lon":6.2852418},{"type":"node","id":7767878185,"lat":51.9642187,"lon":6.2851716},{"type":"node","id":7767878186,"lat":51.9642309,"lon":6.2850932},{"type":"node","id":9631641860,"lat":51.964163,"lon":6.2852852},{"type":"node","id":9631641861,"lat":51.9642002,"lon":6.2852517},{"type":"node","id":9631641862,"lat":51.9642417,"lon":6.2851576},{"type":"node","id":9631641863,"lat":51.9642486,"lon":6.2850686},{"type":"node","id":9631641864,"lat":51.9642425,"lon":6.2849692},{"type":"node","id":9631641876,"lat":51.9641398,"lon":6.2852878},{"type":"node","id":9631641877,"lat":51.9641565,"lon":6.2852602},{"type":"node","id":9631641878,"lat":51.9641996,"lon":6.2852124},{"type":"node","id":9631641879,"lat":51.9642242,"lon":6.2849467},{"type":"node","id":9631641881,"lat":51.9642472,"lon":6.2851107},{"type":"node","id":9631642269,"lat":51.9642233,"lon":6.285212},{"type":"node","id":10296175448,"lat":51.9641601,"lon":6.2856354},{"type":"node","id":11296447457,"lat":51.9611431,"lon":6.2882527},{"type":"node","id":11296447458,"lat":51.9612166,"lon":6.2884559},{"type":"node","id":11952552407,"lat":51.9640521,"lon":6.2856465},{"type":"node","id":11952552411,"lat":51.9641506,"lon":6.285575},{"type":"node","id":11952552465,"lat":51.9643084,"lon":6.285907},{"type":"node","id":11952552466,"lat":51.9642946,"lon":6.2858781},{"type":"node","id":13121492822,"lat":51.9648791,"lon":6.2852726},{"type":"node","id":13121492823,"lat":51.9648435,"lon":6.2852204},{"type":"node","id":13121492824,"lat":51.9646662,"lon":6.2855308},{"type":"node","id":13121492825,"lat":51.9646059,"lon":6.2856354},{"type":"node","id":13121492826,"lat":51.9643476,"lon":6.2859624},{"type":"node","id":13121492827,"lat":51.9642479,"lon":6.2860877},{"type":"node","id":13121492828,"lat":51.9642334,"lon":6.2862015},{"type":"node","id":13121492829,"lat":51.9637687,"lon":6.2867829},{"type":"node","id":13121492830,"lat":51.9635576,"lon":6.2870337},{"type":"node","id":13121492831,"lat":51.9634518,"lon":6.2871464},{"type":"node","id":13121492832,"lat":51.963297,"lon":6.2873005},{"type":"node","id":13121492833,"lat":51.9630659,"lon":6.2875143},{"type":"node","id":13121492834,"lat":51.9629801,"lon":6.287592},{"type":"node","id":13121492835,"lat":51.9629366,"lon":6.2876228},{"type":"node","id":13121492836,"lat":51.9629009,"lon":6.2876334},{"type":"node","id":13121492837,"lat":51.9628799,"lon":6.2876496},{"type":"node","id":13121492838,"lat":51.9628699,"lon":6.2876702},{"type":"node","id":13121492839,"lat":51.9628651,"lon":6.2876987},{"type":"node","id":13121492840,"lat":51.9628644,"lon":6.287726},{"type":"node","id":13121492841,"lat":51.9640226,"lon":6.286472},{"type":"node","id":44523271,"lat":51.9440885,"lon":6.2931489},{"type":"node","id":44523346,"lat":51.9441231,"lon":6.2942121},{"type":"node","id":44523804,"lat":51.9442014,"lon":6.2930949},{"type":"node","id":44523900,"lat":51.9442395,"lon":6.2941576},{"type":"node","id":11302773732,"lat":51.9533081,"lon":6.3014026},{"type":"node","id":11302773733,"lat":51.9533525,"lon":6.3014709},{"type":"node","id":3150373192,"lat":51.9573035,"lon":6.3039312},{"type":"node","id":3150373198,"lat":51.9571649,"lon":6.3043466},{"type":"node","id":4191750905,"lat":51.9571999,"lon":6.3044199},{"type":"node","id":4191750906,"lat":51.9572633,"lon":6.3042329},{"type":"node","id":4191750913,"lat":51.9573331,"lon":6.3040211},{"type":"node","id":11293391995,"lat":51.9572425,"lon":6.3041235},{"type":"node","id":3646109667,"lat":51.9579605,"lon":6.3054812},{"type":"node","id":3646109668,"lat":51.9577775,"lon":6.3055554},{"type":"node","id":3646109670,"lat":51.9576903,"lon":6.3055702},{"type":"node","id":4831431301,"lat":51.9578608,"lon":6.3055274},{"type":"node","id":4187998253,"lat":51.9685902,"lon":6.2915928},{"type":"node","id":9655077066,"lat":51.968612,"lon":6.2916522},{"type":"node","id":5262621680,"lat":51.9686462,"lon":6.303733},{"type":"node","id":8274154152,"lat":51.968706,"lon":6.3036591}]}}
