{"query_name":"06-settlements","query_signature":"85ff3af1a94da18a0e07ed5074b0ea3ce5aeec8d","tile_path":"102","payload":{"version":0.6,"generator":"Overpass API 0.7.62.11 87bfad18","osm3s":{"timestamp_osm_base":"2026-07-14T17:25:46Z","copyright":"The data included in this document is from www.openstreetmap.org. The data is made available under ODbL."},"elements":[{"type":"node","id":44847845,"lat":52.0109146,"lon":6.3816565,"tags":{"name":"De Meene","place":"hamlet","source":"AND"}},{"type":"node","id":44921917,"lat":52.0281183,"lon":6.3430174,"tags":{"name":"Oosterwijk","place":"hamlet","postal_code":"7021","source":"AND"}},{"type":"node","id":44952804,"lat":52.0352213,"lon":6.3275027,"tags":{"name":"Dunsborg","place":"hamlet","postal_code":"7255","source":"AND"}},{"type":"node","id":5611304319,"lat":52.0068482,"lon":6.3500598,"tags":{"name":"Zelhem","name:carnaval":"Plaggendarp","name:ru":"Зелем","place":"village","population":"7665","population:date":"2017-01-01","population:note":"Inwonertal exclusief Halle en Velswijk.","postal_code":"7021","source:population":"CBS Wijk & Buurt 2017","wikidata":"Q1616224"}},{"type":"node","id":7160551005,"lat":52.0100925,"lon":6.3064206,"tags":{"name":"Velswijk","place":"village","population":"1155","population:date":"2017-01-01","postal_code":"7021","source:population":"CBS Buurt 2017","wikidata":"Q3030498"}}]}}
