{"query_name":"06-settlements","query_signature":"aea89765d4fcb3dfb6a5b3f8c95de5bba9c4edc3","tile_path":"126","payload":{"version":0.6,"generator":"Overpass API 0.7.62.11 87bfad18","osm3s":{"timestamp_osm_base":"2026-07-14T17:33:00Z","copyright":"The data included in this document is from www.openstreetmap.org. The data is made available under ODbL."},"elements":[{"type":"node","id":35081925,"lat":52.0689599,"lon":6.9766969,"tags":{"name":"Wüllen","place":"village","wikidata":"Q142780"}},{"type":"node","id":9831152690,"lat":52.0426989,"lon":7.0101868,"tags":{"locality":"ALKIS_Lage","name":"Große Rott","place":"locality"}},{"type":"node","id":11571320163,"lat":52.0468468,"lon":6.9960171,"tags":{"name":"Quantwick","place":"hamlet"}},{"type":"node","id":11571320164,"lat":52.0587093,"lon":7.0043417,"tags":{"name":"Oberortwick","place":"hamlet"}},{"type":"node","id":11571320165,"lat":52.0524353,"lon":6.9574113,"tags":{"name":"Sabstätte","place":"hamlet"}}]}}
