{"query_name":"06-settlements","query_signature":"f828f3a240bf5b813cbf28db154c62191b6749b0","tile_path":"138","payload":{"version":0.6,"generator":"Overpass API 0.7.62.11 87bfad18","osm3s":{"timestamp_osm_base":"2026-07-14T17:37:01Z","copyright":"The data included in this document is from www.openstreetmap.org. The data is made available under ODbL."},"elements":[{"type":"node","id":45145502,"lat":52.077947,"lon":6.672408,"tags":{"name":"Holterhoek","place":"hamlet","postal_code":"7152","source":"AND"}},{"type":"node","id":45256010,"lat":52.1032685,"lon":6.6511683,"tags":{"name":"Eibergen","name:carnaval":"Rot'ngat","name:ru":"Эйберген","place":"town","population":"11175","population:date":"2017-01-01","source:population":"https://berkelland.incijfers.nl/jive","wikidata":"Q1025665"}},{"type":"node","id":45271319,"lat":52.1067877,"lon":6.6739402,"tags":{"name":"Loo","place":"hamlet","postal_code":"7152","source":"AND"}},{"type":"way","id":1041551406,"nodes":[9588788271,9588788272,9588788273,9588788274,9588788275,9588788271],"tags":{"name":"Brink","place":"square"}},{"type":"node","id":9588788271,"lat":52.1020577,"lon":6.6481226},{"type":"node","id":9588788272,"lat":52.1017698,"lon":6.6482271},{"type":"node","id":9588788273,"lat":52.1018815,"lon":6.6490333},{"type":"node","id":9588788274,"lat":52.1018915,"lon":6.6491549},{"type":"node","id":9588788275,"lat":52.1019815,"lon":6.6491686}]}}
