{"query_name":"06-settlements","query_signature":"fc38feeb1d3f5eb1ea4d8920029b9f295f48bb87","tile_path":"160","payload":{"version":0.6,"generator":"Overpass API 0.7.62.11 87bfad18","osm3s":{"timestamp_osm_base":"2026-07-14T17:44:04Z","copyright":"The data included in this document is from www.openstreetmap.org. The data is made available under ODbL."},"elements":[{"type":"node","id":9383059663,"lat":52.1132924,"lon":7.1301414,"tags":{"is_in:municipality":"Heek","name":"Averbeck","place":"hamlet"}},{"type":"node","id":9513103859,"lat":52.1373888,"lon":7.1213017,"tags":{"alt_name":"Kallenbeck","name":"Callenbeck","place":"hamlet"}},{"type":"node","id":9832248276,"lat":52.1316032,"lon":7.137654,"tags":{"locality":"ALKIS_Lage","name":"Stroenfeld","place":"locality"}},{"type":"way","id":976019999,"nodes":[9032312417,9032312418,9032312419,9032312420,9032312421,9032312422,9032312423,9032312424,9032312425,9032312426,9032312427,9032312428,9032312429,9032312430,9032312431,9032312432,9032312433,9032312417],"tags":{"landuse":"forest","place":"islet"}},{"type":"node","id":9032312417,"lat":52.1299676,"lon":7.1590005},{"type":"node","id":9032312418,"lat":52.1300582,"lon":7.1588211},{"type":"node","id":9032312419,"lat":52.1301308,"lon":7.1586628},{"type":"node","id":9032312420,"lat":52.1301774,"lon":7.1585425},{"type":"node","id":9032312421,"lat":52.1302007,"lon":7.1584792},{"type":"node","id":9032312422,"lat":52.1302137,"lon":7.1584476},{"type":"node","id":9032312423,"lat":52.1302733,"lon":7.1584265},{"type":"node","id":9032312424,"lat":52.1302875,"lon":7.1584539},{"type":"node","id":9032312425,"lat":52.1302823,"lon":7.15857},{"type":"node","id":9032312426,"lat":52.1302979,"lon":7.1586818},{"type":"node","id":9032312427,"lat":52.1302875,"lon":7.1587494},{"type":"node","id":9032312428,"lat":52.1301904,"lon":7.1589308},{"type":"node","id":9032312429,"lat":52.1300997,"lon":7.1590617},{"type":"node","id":9032312430,"lat":52.1300427,"lon":7.1591461},{"type":"node","id":9032312431,"lat":52.1300012,"lon":7.1591798},{"type":"node","id":9032312432,"lat":52.1299831,"lon":7.1591503},{"type":"node","id":9032312433,"lat":52.1299701,"lon":7.1590786}]}}
