{"query_name":"06-settlements","query_signature":"40578956a287d4aac756a187f189255151db519a","tile_path":"213","payload":{"version":0.6,"generator":"Overpass API 0.7.62.11 87bfad18","osm3s":{"timestamp_osm_base":"2026-07-14T18:01:30Z","copyright":"The data included in this document is from www.openstreetmap.org. The data is made available under ODbL."},"elements":[{"type":"node","id":45882607,"lat":52.2501611,"lon":6.2844941,"tags":{"name":"Bathmen","name:carnaval":"Pompersgat","name:nds-nl":"Battum","name:nl":"Bathmen","name:ru":"Батмен","place":"village","population":"5570","population:date":"2017-01-01","postal_code":"7437","source:population":"CBS Wijk 2017","wikidata":"Q810795","wikipedia":"nl:Bathmen"}},{"type":"node","id":45912904,"lat":52.2575332,"lon":6.3022708,"tags":{"name":"Apenhuizen","place":"hamlet","source":"AND"}},{"type":"node","id":45989812,"lat":52.2771273,"lon":6.2717777,"tags":{"name":"Lettele","name:nl":"Lettele","name:ru":"Леттеле","place":"village","population":"1680","population:date":"2017-01-01","postal_code":"7434","source:population":"CBS Wijk 2017","wikidata":"Q2273522","wikipedia":"nl:Lettele"}},{"type":"node","id":6875598723,"lat":52.2606153,"lon":6.2878118,"tags":{"name":"Oude Molen","place":"hamlet","postal_code":"7434"}},{"type":"node","id":6924908090,"lat":52.2512148,"lon":6.2547698,"tags":{"name":"De Bannink","place":"hamlet","population":"60","population:date":"2017","source:population":"CBS Kerncijfers wijken en buurten 2017, Centraal Bureau voor de Statistiek, Voorburg/Heerlen"}},{"type":"node","id":10939160062,"lat":52.2635612,"lon":6.2313069,"tags":{"name":"Spikvoorde","place":"neighbourhood","population":"2700","website":"https://www.staatvandeventer.nl/bevolking/inwoneraantal/spikvoorde"}},{"type":"node","id":10939160063,"lat":52.2582822,"lon":6.2330688,"tags":{"name":"Graveland","place":"neighbourhood","population":"460","website":"https://www.staatvandeventer.nl/bevolking/woningen-aantal/graveland"}},{"type":"way","id":6326167,"nodes":[45996969,45997085,45998755,45998980,45999293,45999632,45999819,46000138,46002875,46003244,46003540,46003909,46004581,46004753,46004583,46004009,46002662,46001692,46001490,46002574,46002642,46002663,46002644,46002333,45999798,45997431,45997661,45996969],"tags":{"name":"Koerkamps","place":"locality","source":"AND","toponym":"forest"}},{"type":"node","id":45997085,"lat":52.27925,"lon":6.2567},{"type":"node","id":45998755,"lat":52.27973,"lon":6.25756},{"type":"node","id":45998980,"lat":52.2798,"lon":6.25748},{"type":"node","id":45999293,"lat":52.2799,"lon":6.25707},{"type":"node","id":45999632,"lat":52.28,"lon":6.25691},{"type":"node","id":45999819,"lat":52.28008,"lon":6.25689},{"type":"node","id":46000138,"lat":52.28017,"lon":6.25681},{"type":"node","id":46002875,"lat":52.28093,"lon":6.25724},{"type":"node","id":46003244,"lat":52.28103,"lon":6.25722},{"type":"node","id":46003540,"lat":52.28112,"lon":6.25713},{"type":"node","id":46003909,"lat":52.28121,"lon":6.25713},{"type":"node","id":45996969,"lat":52.27921,"lon":6.25891},{"type":"node","id":45997431,"lat":52.27936,"lon":6.26059},{"type":"node","id":45997661,"lat":52.27941,"lon":6.25941},{"type":"node","id":45999798,"lat":52.28007,"lon":6.26153},{"type":"node","id":46001490,"lat":52.28051,"lon":6.2618},{"type":"node","id":46001692,"lat":52.28059,"lon":6.26155},{"type":"node","id":46002333,"lat":52.28077,"lon":6.26251},{"type":"node","id":46002574,"lat":52.28083,"lon":6.2622},{"type":"node","id":46002642,"lat":52.28087,"lon":6.26231},{"type":"node","id":46002644,"lat":52.28087,"lon":6.2626},{"type":"node","id":46002662,"lat":52.28088,"lon":6.26029},{"type":"node","id":46002663,"lat":52.28088,"lon":6.26249},{"type":"node","id":46004009,"lat":52.28125,"lon":6.25957},{"type":"node","id":46004581,"lat":52.28141,"lon":6.25737},{"type":"node","id":46004753,"lat":52.28147,"lon":6.2585},{"type":"node","id":46004583,"lat":52.28141,"lon":6.25932}]}}
