{"query_name":"06-settlements","query_signature":"ecf7e05fbe66468c54d3ca565c90b943167345a9","tile_path":"221","payload":{"version":0.6,"generator":"Overpass API 0.7.62.11 87bfad18","osm3s":{"timestamp_osm_base":"2026-07-14T18:03:29Z","copyright":"The data included in this document is from www.openstreetmap.org. The data is made available under ODbL."},"elements":[{"type":"node","id":1928883413,"lat":52.2506045,"lon":6.9117355,"tags":{"name":"Lonneker","name:nl":"Lonneker","name:ru":"Лоннекер","place":"village","population":"1915","population:date":"2017-01-01","postal_code":"7524","source:population":"CBS Buurt 2017","wikidata":"Q2490294"}},{"type":"node","id":2719048868,"lat":52.2472697,"lon":6.8913646,"tags":{"name":"Zuidkamp","place":"locality"}},{"type":"node","id":2721542495,"lat":52.2540734,"lon":6.9380541,"tags":{"name":"Achterhoek","place":"locality"}},{"type":"node","id":2721542506,"lat":52.2516695,"lon":6.9529253,"tags":{"name":"Kuipershoek","place":"locality"}},{"type":"node","id":2821779295,"lat":52.2566374,"lon":6.903648,"tags":{"name":"Roolvink Esch","place":"locality"}},{"type":"node","id":2821779296,"lat":52.259876,"lon":6.8971662,"tags":{"name":"Roolvink","place":"locality"}},{"type":"node","id":6074524615,"lat":52.249077,"lon":6.9443839,"tags":{"name":"Landgoed \"de Elsbeek\"","place":"locality"}},{"type":"node","id":13612972697,"lat":52.2479161,"lon":6.89264,"tags":{"name":"Het Vaneker","place":"neighbourhood"}}]}}
