{"query_name":"06-settlements","query_signature":"76de40d965b7cbe625a023063ba098361612e35e","tile_path":"240","payload":{"version":0.6,"generator":"Overpass API 0.7.62.11 87bfad18","osm3s":{"timestamp_osm_base":"2026-07-14T18:10:39Z","copyright":"The data included in this document is from www.openstreetmap.org. The data is made available under ODbL."},"elements":[{"type":"node","id":33589406,"lat":52.3025609,"lon":7.16052,"tags":{"alt_name:nds":"Bad Bent;Bad Bempen;Bad Bäinthem","name":"Bad Bentheim","name:nds":"Bad Bentem","name:sr":"Бад Бентхајм","old_name:nl":"Bentem","place":"town","population":"15311","ref:LOCODE":"DEBDB","wikidata":"Q574332"}},{"type":"node","id":1749832100,"lat":52.2838343,"lon":7.1323919,"tags":{"name":"Sieringhoek","place":"locality"}},{"type":"node","id":10006218254,"lat":52.3022705,"lon":7.1784514,"tags":{"name":"In den Bergkämpen","place":"locality"}},{"type":"node","id":10705833947,"lat":52.3007146,"lon":7.1204209,"tags":{"name":"Hagelshoek","place":"hamlet"}},{"type":"way","id":115559454,"nodes":[1305202978,11265164766,1305203105,1305203170,13401469012,1305203059,13821040503,1305202978],"tags":{"place":"square"}},{"type":"way","id":150294340,"nodes":[1632210426,1632210411,1632210403,2038651872,1632210401,2189668352,1632210422,13421353338,1632210425,13421353337,1632210426],"tags":{"landuse":"meadow","place":"islet"}},{"type":"node","id":1305202978,"lat":52.30224,"lon":7.159495},{"type":"node","id":1305203059,"lat":52.3018622,"lon":7.1594637},{"type":"node","id":1305203105,"lat":52.3022651,"lon":7.1599178},{"type":"node","id":1305203170,"lat":52.3018541,"lon":7.1598889},{"type":"node","id":1632210401,"lat":52.3055778,"lon":7.1569006},{"type":"node","id":1632210403,"lat":52.305608,"lon":7.1568053},{"type":"node","id":1632210411,"lat":52.3056544,"lon":7.1567948},{"type":"node","id":1632210422,"lat":52.3056327,"lon":7.1569815},{"type":"node","id":1632210425,"lat":52.3056765,"lon":7.1569657},{"type":"node","id":1632210426,"lat":52.3056801,"lon":7.1568524},{"type":"node","id":2038651872,"lat":52.3055841,"lon":7.1568475},{"type":"node","id":2189668352,"lat":52.3055992,"lon":7.1569417},{"type":"node","id":11265164766,"lat":52.302281,"lon":7.1595124},{"type":"node","id":13401469012,"lat":52.3018674,"lon":7.1596},{"type":"node","id":13421353337,"lat":52.3056819,"lon":7.1569073},{"type":"node","id":13421353338,"lat":52.305656,"lon":7.1569796},{"type":"node","id":13821040503,"lat":52.3020718,"lon":7.1594811}]}}
