{"query_name":"06-settlements","query_signature":"24465e84990e7bc1234aade7b0354369ed3fe711","tile_path":"251","payload":{"version":0.6,"generator":"Overpass API 0.7.62.11 87bfad18","osm3s":{"timestamp_osm_base":"2026-07-14T18:13:43Z","copyright":"The data included in this document is from www.openstreetmap.org. The data is made available under ODbL."},"elements":[{"type":"node","id":46165922,"lat":52.3215355,"lon":6.7613581,"tags":{"name":"Hertme","place":"village","population":"520","population:date":"2017-01-01","postal_code":"7626","source:population":"CBS Buurt 2017","wikidata":"Q2104612"}},{"type":"node","id":46199162,"lat":52.3299803,"lon":6.7388651,"tags":{"name":"Weleveld","place":"locality","postal_code":"7625","source":"AND"}},{"type":"node","id":46244813,"lat":52.33942,"lon":6.78025,"tags":{"name":"'t Loo","place":"hamlet","postal_code":"7597","source":"AND"}},{"type":"node","id":3754672437,"lat":52.3253541,"lon":6.7933211,"tags":{"name":"Twente","name:la":"Tuenta","name:nl":"Twente","place":"region","wikidata":"Q1455944","wikipedia":"nl:Twente"}},{"type":"node","id":9196051136,"lat":52.3237521,"lon":6.7241713,"tags":{"name":"Zenderen","name:nl":"Zenderen","name:ru":"Зендерен","place":"village","population":"1345","population:date":"2017-01-01","postal_code":"7625","source:population":"CBS Buurt 2017","wikidata":"Q2953809","wikipedia":"nl:Zenderen"}}]}}
