{"query_name":"06-settlements","query_signature":"b1cef13bb81655c135f66ef2d9a2ae0adcbf34ba","tile_path":"63","payload":{"version":0.6,"generator":"Overpass API 0.7.62.11 87bfad18","osm3s":{"timestamp_osm_base":"2026-07-14T17:11:28Z","copyright":"The data included in this document is from www.openstreetmap.org. The data is made available under ODbL."},"elements":[{"type":"node","id":9330050172,"lat":51.9054175,"lon":7.093136,"tags":{"name":"Stevede","place":"hamlet"}},{"type":"node","id":9832856940,"lat":51.9132033,"lon":7.0468087,"tags":{"locality":"ALKIS_Lage","name":"Alte Kuhlen","place":"locality"}},{"type":"node","id":9832856942,"lat":51.9131542,"lon":7.0629674,"tags":{"locality":"ALKIS_Lage","name":"Buddenkuhle","place":"locality"}},{"type":"node","id":9952597173,"lat":51.937022,"lon":7.0821355,"tags":{"name":"Klye","place":"hamlet"}},{"type":"way","id":1080207643,"nodes":[9901302607,9901302608,9901302609,9901302610,9901302611,9901302612,9901302613,9901302614,9901302615,9901302616,9901332617,9901332618,9901302607],"tags":{"place":"islet"}},{"type":"node","id":9901302607,"lat":51.9346237,"lon":7.0947412},{"type":"node","id":9901302608,"lat":51.9346024,"lon":7.0947832},{"type":"node","id":9901302609,"lat":51.9345924,"lon":7.094876},{"type":"node","id":9901302610,"lat":51.9345737,"lon":7.0949085},{"type":"node","id":9901302611,"lat":51.9345697,"lon":7.0950087},{"type":"node","id":9901302612,"lat":51.9345892,"lon":7.0950639},{"type":"node","id":9901302613,"lat":51.9346142,"lon":7.0950728},{"type":"node","id":9901302614,"lat":51.9346569,"lon":7.095058},{"type":"node","id":9901302615,"lat":51.9346751,"lon":7.0950396},{"type":"node","id":9901302616,"lat":51.934666,"lon":7.0949836},{"type":"node","id":9901332617,"lat":51.9346469,"lon":7.0948922},{"type":"node","id":9901332618,"lat":51.9346464,"lon":7.0947913}]}}
