{"query_name":"04-places-heritage","query_signature":"a2c6ce4531a3d73d29f1b1a47ac397ff9b3d60a0","tile_path":"10","payload":{"version":0.6,"generator":"Overpass API 0.7.62.11 87bfad18","osm3s":{"timestamp_osm_base":"2026-07-14T21:23:03Z","copyright":"The data included in this document is from www.openstreetmap.org. The data is made available under ODbL."},"elements":[{"type":"node","id":656179142,"lat":51.8162525,"lon":6.7111635,"tags":{"historic":"wayside_shrine","name":"Pietà"}},{"type":"node","id":656391083,"lat":51.8190101,"lon":6.6970943,"tags":{"historic":"wayside_shrine","name":"Johannes-von-Nepomuk-Statue"}},{"type":"node","id":656887936,"lat":51.8234628,"lon":6.6957792,"tags":{"historic":"wayside_cross"}},{"type":"node","id":4006078215,"lat":51.8308992,"lon":6.6702803,"tags":{"historic":"memorial","name":"Hermann Löns Gedenkstätte","start_date":"11.09.1932"}},{"type":"node","id":6215674171,"lat":51.8328874,"lon":6.6422888,"tags":{"artist_name":"Gunter Demnig","historic":"memorial","image":"File:Stolperstein Bocholt Hochfeldstraße 147 Otto Landau.jpg","material":"brass","material:de":"Messing","memorial":"stolperstein","memorial:addr":"Hochfeldstraße 147","memorial:text":"Hier wohnte, Otto Landau, Jg. 1901, deportiert 1941, ermordet 1943 in, Riga","name":"Otto Landau","object:city":"Bocholt","object:country":"DE","object:housenumber":"111","object:postcode":"46397","object:street":"Hochfeldstraße","person:date_of_birth":"1901","person:date_of_death":"1943","start_date":"2008-01-28"}},{"type":"node","id":8109460949,"lat":51.8324817,"lon":6.7123555,"tags":{"historic":"wayside_cross","religion":"christian"}}]}}
