{"query_name":"04-places-heritage","query_signature":"95f4974ec853eab2521b6d293f148a6504d1ce9f","tile_path":"14","payload":{"version":0.6,"generator":"Overpass API 0.7.62.11 87bfad18","osm3s":{"timestamp_osm_base":"2026-07-14T21:24:08Z","copyright":"The data included in this document is from www.openstreetmap.org. The data is made available under ODbL."},"elements":[{"type":"node","id":293893913,"lat":51.833484,"lon":6.9783794,"tags":{"access":"yes","archaeological_site":"megalith","historic":"archaeological_site","image":"File:Düwelsteene (Heiden) 1.jpg","loc_name":"Düwelsteene","megalith_type":"passage_grave","name":"Teufelsteine","ref:sprockhoff":"985","tourism":"attraction","wheelchair":"limited","wikidata":"Q2407248","wikimedia_commons":"Category:Dolmen Düwelsteene (Teufelssteine bei Heiden)","wikipedia":"de:Teufelsteine (Heiden)"}},{"type":"node","id":7674301154,"lat":51.805182,"lon":6.9646111,"tags":{"denomination":"roman_catholic","historic":"wayside_shrine","inscription":"heiliger Josef bitte für uns, besonders in der Sterbestunde","material":"stone","religion":"christian"}},{"type":"node","id":7674301155,"lat":51.8031617,"lon":6.9726483,"tags":{"description":"Holzkruzifix in Heiligenhäuschen","historic":"wayside_shrine","religion":"christian"}},{"type":"node","id":7674301156,"lat":51.8034033,"lon":6.9739695,"tags":{"denomination":"catholic","description":"Heiligenhäuschen mit Herz-Jesu-Statue","historic":"wayside_shrine","religion":"christian"}},{"type":"node","id":7674301157,"lat":51.8026169,"lon":6.9725677,"tags":{"denomination":"roman_catholic","description":"Marienbildstock","historic":"wayside_shrine","religion":"christian"}},{"type":"node","id":7837615258,"lat":51.821826,"lon":7.0180492,"tags":{"description":"Darstellung Jesus fällt unter dem Kreuz","historic":"wayside_shrine","inscription":"Wanderer, gehst du vorüber,\nsprich ein Gebet für mich.\nMorgen vielleicht kommt ein anderer\nund betet für Dich.\nBocholt 1927\nReken 1987","material":"sandstone","religion":"christian"}},{"type":"node","id":8281716917,"lat":51.81376,"lon":6.9791803,"tags":{"description":"Frei- und Femegericht","historic":"archaeological_site","name":"Freistuhl toeSölling"}},{"type":"node","id":8331881820,"lat":51.8032558,"lon":6.9726047,"tags":{"historic":"wayside_shrine","religion":"christian"}},{"type":"node","id":8930031653,"lat":51.8118455,"lon":6.9728631,"tags":{"historic":"wayside_cross"}},{"type":"node","id":11263136946,"lat":51.8013818,"lon":7.0000907,"tags":{"historic":"wayside_cross"}},{"type":"node","id":11263155836,"lat":51.8297304,"lon":6.9862222,"tags":{"historic":"wayside_cross"}}]}}
