{"query_name":"04-places-heritage","query_signature":"6b0521e3d48d3d90a10c3a27c70fa1b3c6a69f9e","tile_path":"141","payload":{"version":0.6,"generator":"Overpass API 0.7.62.11 87bfad18","osm3s":{"timestamp_osm_base":"2026-07-14T21:53:43Z","copyright":"The data included in this document is from www.openstreetmap.org. The data is made available under ODbL."},"elements":[{"type":"node","id":422699435,"lat":52.0776917,"lon":6.9065933,"tags":{"historic":"wayside_cross","name":"Johanneskapelle"}},{"type":"node","id":504318761,"lat":52.1044998,"lon":6.9313335,"tags":{"description":"Reitpferd Thea; treuer Kamerad d. Oberlt. van Delden; Weltkrieg 1914-18; + 29. Jan 35","historic":"memorial","name":"Grabstätte Reitpferd Thea"}},{"type":"node","id":766662699,"lat":52.084406,"lon":6.9074529,"tags":{"historic":"wayside_cross"}},{"type":"node","id":793932179,"lat":52.0765903,"lon":6.9043045,"tags":{"historic":"wayside_shrine"}},{"type":"node","id":1269957862,"lat":52.0770205,"lon":6.9098699,"tags":{"historic":"wayside_shrine"}},{"type":"node","id":2137683023,"lat":52.0991732,"lon":6.9523695,"tags":{"historic":"memorial","name":"Ehrenmal"}},{"type":"node","id":2154656205,"lat":52.0809982,"lon":6.9389529,"tags":{"historic":"memorial","name":"Kapelle Klümpers"}},{"type":"node","id":2167416135,"lat":52.0881001,"lon":6.9027059,"tags":{"historic":"wayside_cross"}},{"type":"way","id":191248706,"nodes":[2018349741,2018349752,2018349744],"tags":{"historic":"wayside_cross"}},{"type":"node","id":2018349741,"lat":52.0756098,"lon":6.917833},{"type":"node","id":2018349744,"lat":52.0756114,"lon":6.9178356},{"type":"node","id":2018349752,"lat":52.0756098,"lon":6.9178356}]}}
