{"query_name":"04-places-heritage","query_signature":"1142e951496c53501314bc5c7a7567b219848efa","tile_path":"15","payload":{"version":0.6,"generator":"Overpass API 0.7.62.11 87bfad18","osm3s":{"timestamp_osm_base":"2026-07-14T21:24:08Z","copyright":"The data included in this document is from www.openstreetmap.org. The data is made available under ODbL."},"elements":[{"type":"node","id":461972095,"lat":51.8059187,"lon":7.0436361,"tags":{"historic":"memorial","name":"Ehrenmal"}},{"type":"node","id":2020482516,"lat":51.8337572,"lon":7.0431914,"tags":{"access":"yes","historic":"monument","inscription":"... erstellt im Jahre 1994 vom Heimatverein Reken e. V.","name":"Nachbildung historischer Brunnen"}},{"type":"node","id":2034357908,"lat":51.8330156,"lon":7.0676963,"tags":{"description":"Jesus begegnet seiner heiligen Mutter","historic":"wayside_shrine","image":"File:Kreuzweg Reken Station IV.JPG","name":"Station IV"}},{"type":"node","id":2034357951,"lat":51.8303273,"lon":7.0495526,"tags":{"denomination":"catholic","description":"Jesus wird zum Tode Verurteilt","historic":"wayside_shrine","image":"File:Kreuzweg_Reken_Station_I_(b).JPG","name":"Station I","religion":"christian"}},{"type":"node","id":2034357964,"lat":51.8343632,"lon":7.0562137,"tags":{"description":"Jesus wird ans Kreuz geheftet","historic":"wayside_shrine","image":"File:Kreuzweg Reken Station XIII.JPG","name":"Station XIII"}},{"type":"node","id":2034357988,"lat":51.8309323,"lon":7.0544459,"tags":{"historic":"wayside_cross","image":"File:Kreuzweg Reken Kreuz.JPG"}},{"type":"node","id":2034358000,"lat":51.8308216,"lon":7.0563548,"tags":{"denomination":"catholic","description":"Jesus wird mit dem Kreuz beladen","historic":"wayside_shrine","image":"File:Kreuzweg Reken Station II.JPG","name":"Station II","religion":"christian"}},{"type":"node","id":2034358017,"lat":51.8324093,"lon":7.0616935,"tags":{"denomination":"catholic","description":"Jesus fällt zum ersten mal unter dem Kreuz","historic":"wayside_shrine","image":"File:Kreuzweg Reken Station III.JPG","name":"Station III","religion":"christian"}},{"type":"node","id":2706630342,"lat":51.833484,"lon":7.0532073,"tags":{"description":"Jesus stirbt am Kreuz","fixme":"position","historic":"wayside_shrine","image":"File:Kreuzweg Reken Station XIV.JPG","name":"Station XIV","religion":"christian"}},{"type":"node","id":7416988660,"lat":51.8335847,"lon":7.0632918,"tags":{"access":"yes","denomination":"roman_catholic","fixme":"Eigenname \"Wegekapelle Bachbarschaft Berge\" ?!","historic":"wayside_shrine","religion":"christian"}},{"type":"node","id":7417013787,"lat":51.8078245,"lon":7.0538812,"tags":{"historic":"wayside_cross","name":"Wegekreuz Nachbarschaft Holtendorf-Bahnhof","religion":"christian"}},{"type":"node","id":7417262658,"lat":51.8302651,"lon":7.0425452,"tags":{"access":"yes","denomination":"catholic","historic":"wayside_shrine","name":"Bildstock Relief St. Heinrich","religion":"christian"}},{"type":"node","id":7417262659,"lat":51.8303681,"lon":7.042569,"tags":{"historic":"wayside_cross","name":"Wegekreuz Auferstandener und Brunnen","religion":"christian"}},{"type":"node","id":7417294048,"lat":51.8338329,"lon":7.0428329,"tags":{"access":"yes","denomination":"roman_catholic","historic":"wayside_shrine","inscription":"Anno domini 1928","name":"Wegekapelle im Pläckerhok","religion":"christian"}},{"type":"node","id":8888853245,"lat":51.8053598,"lon":7.1138426,"tags":{"archaeological_site":"tumulus","historic":"archaeological_site"}},{"type":"node","id":8888853246,"lat":51.8041493,"lon":7.1136197,"tags":{"archaeological_site":"tumulus","historic":"archaeological_site"}},{"type":"node","id":9690084603,"lat":51.8236416,"lon":7.0527838,"tags":{"description":"Hofkreuz Lütkebohmert","historic":"wayside_cross","material":"wood"}},{"type":"node","id":13074873851,"lat":51.8314818,"lon":7.0459106,"tags":{"historic":"memorial","inscription":"Hier wohnte Rosa Silberschmidt geb. Abel Jg. 1882 deportiert 1942 Schicksal unbekannt","material":"brass","material:de":"Messing","memorial":"stolperstein","memorial:addr":"Harrierstraße 2, 48734 Reken","name":"Rosa Silberschmidt geb. Abel","object:city":"Reken","object:country":"DE","object:housenumber":"2","object:postcode":"48734","object:street":"Harrierstraße","person:date_of_birth":"1882","start_date":"2022-01-26","wikidata":"Q133266218"}},{"type":"node","id":13075563418,"lat":51.828861,"lon":7.0414519,"tags":{"historic":"memorial","inscription":"Hier wohnte, Salomon Lebenstein, Jg. 1870, deportiert 1942, Theresienstadt, 1942 Treblinka, ermordet","material":"brass","material:de":"Messing","memorial":"stolperstein","memorial:addr":"Surkstamm Ecke Dorfheide, 48734 Reken","name":"Salomon Levinstein","object:city":"Reken","object:country":"DE","object:housenumber":"22-24","object:postcode":"48734","object:street":"Surkstamm","person:date_of_birth":"1870","start_date":"2022-01-26","wikidata":"Q135875243"}},{"type":"node","id":13075563419,"lat":51.828862,"lon":7.0414511,"tags":{"historic":"memorial","inscription":"Hier wohnte, David Lebenstein, Jg. 1867, deportiert 1942, Theresienstadt, 1942 Treblinka, ermordet","material":"brass","material:de":"Messing","memorial":"stolperstein","memorial:addr":"Surkstamm Ecke Dorfheide, 48734 Reken","name":"David Levinstein","object:city":"Reken","object:country":"DE","object:housenumber":"22-24","object:postcode":"48734","object:street":"Surkstamm","person:date_of_birth":"1867","start_date":"2022-01-26","wikidata":"Q135875244"}},{"type":"node","id":13075563420,"lat":51.8288635,"lon":7.0414493,"tags":{"historic":"memorial","inscription":"Hier wohnte, Berta Lebenstein, geb. Gottschalk, Jg. 1867, deportiert 1942, Theresienstadt, 1944 Treblinka, ermordet","material":"brass","material:de":"Messing","memorial":"stolperstein","memorial:addr":"Surkstamm Ecke Dorfheide, 48734 Reken","name":"Berta Lebenstein geb. Gottschalk","object:city":"Reken","object:country":"DE","object:housenumber":"22-24","object:postcode":"48734","object:street":"Surkstamm","person:date_of_birth":"1867","start_date":"2022-01-26","wikidata":"Q135875245"}},{"type":"node","id":13075563421,"lat":51.8288628,"lon":7.0414501,"tags":{"historic":"memorial","inscription":"Hier wohnte, Martha Lebenstein, Jg. 1903, deportiert 1941, Riga, 1944 Stutthof, ermordet","material":"brass","material:de":"Messing","memorial":"stolperstein","memorial:addr":"Surkstamm Ecke Dorfheide, 48734 Reken","name":"Martha Levinstein","object:city":"Reken","object:country":"DE","object:housenumber":"22-24","object:postcode":"48734","object:street":"Surkstamm","person:date_of_birth":"1903","start_date":"2022-01-26","wikidata":"Q135875246"}},{"type":"node","id":13075563422,"lat":51.8306738,"lon":7.046262,"tags":{"historic":"memorial","inscription":"Hier wohnte, Albert Lebenstein, Jg. 1888, gedemütigt/entrechtet, Flucht in den Tod, 8.9.1939","material":"brass","material:de":"Messing","memorial":"stolperstein","memorial:addr":"Harrierstraße 13, 48734 Reken","name":"Albert Levinstein","object:city":"Reken","object:country":"DE","object:housenumber":"13","object:postcode":"48734","object:street":"Harrierstraße","person:date_of_birth":"1888","person:date_of_death":"1939-09-08","start_date":"2022-01-26","wikidata":"Q135875247"}},{"type":"node","id":13075563423,"lat":51.8306727,"lon":7.0462626,"tags":{"historic":"memorial","inscription":"Hier wohnte, Friederich Lebenstein, Jg. 1898, deportiert 1941, Riga, Massenerschiessung, 30.11.1941, Riga-Rumbula","material":"brass","material:de":"Messing","memorial":"stolperstein","memorial:addr":"Harrierstraße 13, 48734 Reken","name":"Friederich Levinstein","object:city":"Reken","object:country":"DE","object:housenumber":"13","object:postcode":"48734","object:street":"Harrierstraße","person:date_of_birth":"1898","person:date_of_death":"1941-11-30","start_date":"2022-01-26","wikidata":"Q135875248"}},{"type":"node","id":13075563424,"lat":51.8306748,"lon":7.0462611,"tags":{"historic":"memorial","inscription":"Hier wohnte, Bertha Levinstein, geb. Lebenstein, Jg. 1886, gedemütigt/entrechtet, Flucht in den Tod, 26.4.1937","material":"brass","material:de":"Messing","memorial":"stolperstein","memorial:addr":"Harrierstraße 13, 48734 Reken","name":"Bertha Levinstein geb. Lebenstein","object:city":"Reken","object:country":"DE","object:housenumber":"13","object:postcode":"48734","object:street":"Harrierstraße","person:date_of_birth":"1886","person:date_of_death":"1937-04-26","start_date":"2022-01-26","wikidata":"Q135875249"}},{"type":"node","id":13075563425,"lat":51.8306758,"lon":7.0462603,"tags":{"historic":"memorial","inscription":"Hier wohnte, Hermann Levinstein, Jg. 1885, deportiert 1942, Riga, ermordet","material":"brass","material:de":"Messing","memorial":"stolperstein","memorial:addr":"Harrierstraße 13, 48734 Reken","name":"Hermann Levinstein","object:city":"Reken","object:country":"DE","object:housenumber":"13","object:postcode":"48734","object:street":"Harrierstraße","person:date_of_birth":"1885","start_date":"2022-01-26","wikidata":"Q135875250"}},{"type":"way","id":231456810,"nodes":[2711708745,2711708675,2711708687,2711708756,2711708745],"tags":{"addr:city":"Reken","addr:country":"DE","addr:housenumber":"10","addr:postcode":"48734","addr:street":"Harrierstraße","building":"yes","heritage":"8","heritage:operator":"UntereDenkmalbehörde","heritage:ref":"4","historic":"building","name":"Haus Uphave","wikidata":"Q16497908"}},{"type":"way","id":264170765,"nodes":[2711709690,2711709687,2711709685,2711709661,2711709659,2711709640,2711709635,2711709619,2711709610,2711709605,2711709642,2711709651,2711709632,2711709673,2711709690],"tags":{"addr:city":"Reken","addr:country":"DE","addr:housenumber":"3","addr:postcode":"48734","addr:street":"Hauptstraße","building":"house","heritage":"8","heritage:operator":"UntereDenkmalbehörde","heritage:ref":"6","historic":"heritage","name":"Weißes Haus","wikidata":"Q16499700"}},{"type":"way","id":531006039,"nodes":[5155076497,5155076505,5155076503,5155076498,5155076499,8888853244,8888853243,8888853242,5155076500,5155076504,5155076501,5155076502,5155076497],"tags":{"archaeological_site":"tumulus","field":"yes","historic":"archaeological_site","historic:civilization":"germanic","historic:period":"bronze-age","name":"Kreisgrabenfriedhof auf dem Radberg","website":"https://www.lwl.org/pressemitteilungen/nr_mitteilung.php?urlID=15787","wikipedia":"de:Grabhügel auf dem Radberg"}},{"type":"node","id":5155076497,"lat":51.8086622,"lon":7.1155744},{"type":"node","id":5155076498,"lat":51.8074907,"lon":7.1166158},{"type":"node","id":5155076499,"lat":51.8073645,"lon":7.1171751},{"type":"node","id":5155076501,"lat":51.8086701,"lon":7.1167663},{"type":"node","id":5155076502,"lat":51.8090983,"lon":7.1160806},{"type":"node","id":5155076503,"lat":51.8079395,"lon":7.1153335},{"type":"node","id":5155076504,"lat":51.8085119,"lon":7.1171699},{"type":"node","id":5155076505,"lat":51.8082962,"lon":7.1152962},{"type":"node","id":5155076500,"lat":51.8082181,"lon":7.1177957},{"type":"node","id":8888853242,"lat":51.8079443,"lon":7.1183925},{"type":"node","id":8888853243,"lat":51.8077252,"lon":7.1188543},{"type":"node","id":8888853244,"lat":51.8073113,"lon":7.1176921},{"type":"node","id":2711708675,"lat":51.8307884,"lon":7.0459468},{"type":"node","id":2711708687,"lat":51.8308116,"lon":7.0460917},{"type":"node","id":2711708745,"lat":51.8309127,"lon":7.0459023},{"type":"node","id":2711708756,"lat":51.8309339,"lon":7.0460454},{"type":"node","id":2711709605,"lat":51.8316578,"lon":7.0460996},{"type":"node","id":2711709610,"lat":51.8316595,"lon":7.0460879},{"type":"node","id":2711709619,"lat":51.8316703,"lon":7.0460176},{"type":"node","id":2711709632,"lat":51.8316921,"lon":7.046277},{"type":"node","id":2711709635,"lat":51.8316973,"lon":7.0460169},{"type":"node","id":2711709640,"lat":51.8316975,"lon":7.0460159},{"type":"node","id":2711709642,"lat":51.8316979,"lon":7.0461154},{"type":"node","id":2711709651,"lat":51.8317151,"lon":7.0461218},{"type":"node","id":2711709659,"lat":51.8317299,"lon":7.0460149},{"type":"node","id":2711709661,"lat":51.83173,"lon":7.0460161},{"type":"node","id":2711709673,"lat":51.8317683,"lon":7.0463066},{"type":"node","id":2711709685,"lat":51.8317954,"lon":7.0460141},{"type":"node","id":2711709687,"lat":51.8318032,"lon":7.0460278},{"type":"node","id":2711709690,"lat":51.8318032,"lon":7.046068}]}}
