{"query_name":"04-places-heritage","query_signature":"cf6fa90f43e1b2593fc2fb0e072a3e31b2baffd7","tile_path":"164","payload":{"version":0.6,"generator":"Overpass API 0.7.62.11 87bfad18","osm3s":{"timestamp_osm_base":"2026-07-14T21:59:51Z","copyright":"The data included in this document is from www.openstreetmap.org. The data is made available under ODbL."},"elements":[{"type":"node","id":4585414692,"lat":52.1478992,"lon":6.2012764,"tags":{"description":"12 April 1898 te Groningen Nederland † 31 March 1944 te Auschwitz. David woonde Coehoornsingel 20 en bereikte de leeftijd van 45 jaar. Beroep: Poetser spoorwegen","historic":"memorial","memorial":"stolperstein","memorial:addr":"Coehoornsingel 20, Zutphen","name":"David Velleman","network":"Stolpersteine Zutphen","person:date_of_birth":"1898-04-12","person:date_of_death":"1944-03-31","proposed:historic":"memorial","website":"https://stolpersteinezutphen.nl/persoon/david-velleman"}},{"type":"node","id":4585414693,"lat":52.1448094,"lon":6.2034545,"tags":{"description":"23 May 1857 te Diepenheim Nederland † 10 May 1943 te Westerbork. Hartog woonde Coehoornsingel 90 en bereikte de leeftijd van 85 jaar.","historic":"memorial","memorial":"stolperstein","memorial:addr":"Coehoornsingel 90, Zutphen","name":"Hartog Mansfeldt","network":"Stolpersteine Zutphen","person:date_of_birth":"1857-05-23","person:date_of_death":"1943-05-10","proposed:historic":"memorial","website":"https://stolpersteinezutphen.nl/persoon/hartog-mansfeldt"}},{"type":"node","id":4585414694,"lat":52.1470886,"lon":6.2005933,"tags":{"description":"28 August 1866 te Zutphen Nederland † 29 June 1944 te Broek op Langedijk. Levi Joseph woonde Deventerweg 10 en bereikte de leeftijd van 77 jaar. Beroep: Textielhandelaar","historic":"memorial","memorial":"stolperstein","memorial:addr":"Deventerweg 10, Zutphen","name":"Levi Joseph Spier","network":"Stolpersteine Zutphen","person:date_of_birth":"1866-08-28","person:date_of_death":"1944-06-29","proposed:historic":"memorial","website":"https://stolpersteinezutphen.nl/persoon/levi-joseph-spier"}},{"type":"node","id":4585414695,"lat":52.1502933,"lon":6.206664,"tags":{"description":"13 February 1924 te Leeuwarden Nederland † 31 March 1945 te Zutphen. Hendrik Hein woonde IJsselkade Fusillade en bereikte de leeftijd van 21 jaar. Overige onderuikadressen: Deventerweg 113","historic":"memorial","memorial":"stolperstein","memorial:addr":"Deventerweg 113, Zutphen","name":"Hendrik Hein Lier","network":"Stolpersteine Zutphen","person:date_of_birth":"1924-02-13","person:date_of_death":"1945-03-31","proposed:historic":"memorial","website":"https://stolpersteinezutphen.nl/node/12884"}},{"type":"node","id":4585414696,"lat":52.1470875,"lon":6.2006972,"tags":{"description":"29 November 1920 te Zutphen Nederland † 5 February 1943 te Auschwitz. Johanna Eline woonde Deventerweg 12 en bereikte de leeftijd van 22 jaar.","historic":"memorial","memorial":"stolperstein","memorial:addr":"Deventerweg 12, Zutphen","name":"Johanna Eline de Haas","network":"Stolpersteine Zutphen","person:date_of_birth":"1920-11-29","person:date_of_death":"1943-02-05","proposed:historic":"memorial","website":"https://stolpersteinezutphen.nl/persoon/johanna-eline-haas"}},{"type":"node","id":4585433989,"lat":52.1469746,"lon":6.1993822,"tags":{"description":"7 July 1868 te Zutphen Nederland † 21 March 1942 te Amsterdam. Michael Simon woonde Deventerweg 1Minervaplein 2 Amsterdam en bereikte de leeftijd van 73 jaar.","historic":"memorial","memorial":"stolperstein","memorial:addr":"Deventerweg 1, Zutphen","name":"Michael Simon Weijl","network":"Stolpersteine Zutphen","person:date_of_birth":"1868-07-07","person:date_of_death":"1942-03-21","proposed:historic":"memorial","website":"https://stolpersteinezutphen.nl/persoon/michael-simon-weijl"}},{"type":"node","id":4585433992,"lat":52.1469504,"lon":6.20179,"tags":{"description":"16 December 1866 te Ruurlo Nederland † 13 March 1943 te Sobibor. Lowie woonde Deventerweg 2 en bereikte de leeftijd van 76 jaar.","historic":"memorial","memorial":"stolperstein","memorial:addr":"Deventerweg 2, Zutphen","name":"Lowie ten Bosch","network":"Stolpersteine Zutphen","person:date_of_birth":"1866-12-16","person:date_of_death":"1943-03-13","proposed:historic":"memorial","website":"https://stolpersteinezutphen.nl/persoon/lowie-bosch"}},{"type":"node","id":4585454890,"lat":52.1469579,"lon":6.2019148,"tags":{"description":"25 December 1873 te Kalkar Duitsland † 14 May 1943 te Sobibor. Amanda woonde Deventerweg 4 en bereikte de leeftijd van 69 jaar.","historic":"memorial","memorial":"stolperstein","memorial:addr":"Deventerweg 4, Zutphen","name":"Amanda Meijer-Vijth","network":"Stolpersteine Zutphen","person:date_of_birth":"1873-12-25","proposed:historic":"memorial","website":"https://stolpersteinezutphen.nl/persoon/amanda-meijer-vijth"}},{"type":"node","id":4585454891,"lat":52.1493818,"lon":6.2054257,"tags":{"description":"29 October 1872 te Lochem Nederland † 6 September 1944 te Auschwitz. Meyer woonde Deventerweg 81 en bereikte de leeftijd van 71 jaar. Beroep: Papierhandelaar","historic":"memorial","memorial":"stolperstein","memorial:addr":"Deventerweg 81, Zutphen","name":"Meyer Vromen","network":"Stolpersteine Zutphen","person:date_of_birth":"1872-10-29","person:date_of_death":"1944-09-06","proposed:historic":"memorial","website":"https://stolpersteinezutphen.nl/persoon/meyer-vromen"}},{"type":"node","id":4585454999,"lat":52.1441274,"lon":6.1963048,"tags":{"description":"ONG exploiteerde bij het Zutphens station een psychiatrische inrichting, oftewel krankzinnigengesticht, zoals dat in die tijd werd genoemd. Het complex bestreek het volledige Basseroordgebied. Ook het badhuis en de wasserij aan de Berkel hoorden erbij.","historic":"memorial","memorial":"stolperstein","memorial:addr":"Gasthuisstraat 18, Zutphen","name":"Oude en Nieuwe Gasthuis (ONG)","network":"Stolpersteine Zutphen","proposed:historic":"memorial","website":"https://stolpersteinezutphen.nl/adres/gasthuisstraat-18"}},{"type":"node","id":4585456112,"lat":52.1465093,"lon":6.1952416,"tags":{"description":"7 December 1883 te Bochum Duitsland † 5 March 1943 te Sobibor. Johanna Helene woonde Havenstraat 36 en bereikte de leeftijd van 59 jaar.","historic":"memorial","memorial":"stolperstein","memorial:addr":"Havenstraat 36, Zutphen","name":"Johanna Helene Philips-Simon","network":"Stolpersteine Zutphen","person:date_of_birth":"1883-12-07","person:date_of_death":"1943-03-05","proposed:historic":"memorial","website":"https://stolpersteinezutphen.nl/persoon/johanna-helene-philips-simon"}},{"type":"node","id":4585484389,"lat":52.1510973,"lon":6.207726,"tags":{"description":"12 January 1880 te Zutphen Nederland † 17 September 1943 te Auschwitz. Mozes woonde Deventerweg 141 en bereikte de leeftijd van 63 jaar. Beroep: Koopman","historic":"memorial","memorial":"stolperstein","memorial:addr":"Deventerweg 141, Zutphen","name":"Mozes Elzas","network":"Stolpersteine Zutphen","person:date_of_birth":"1880-01-12","person:date_of_death":"1943-09-17","proposed:historic":"memorial","website":"https://stolpersteinezutphen.nl/persoon/mozes-elzas"}},{"type":"node","id":4585484391,"lat":52.1490677,"lon":6.2050237,"tags":{"description":"15 November 1876 te Amsterdam Nederland † 7 May 1943 te Sobibor. Lea woonde Deventerweg 69 en bereikte de leeftijd van 66 jaar.","historic":"memorial","memorial":"stolperstein","memorial:addr":"Deventerweg 69, Zutphen","name":"Lea Sanders-Van Gelder","network":"Stolpersteine Zutphen","person:date_of_birth":"1876-11-15","person:date_of_death":"1943-05-07","proposed:historic":"memorial","website":"https://stolpersteinezutphen.nl/persoon/lea-sanders-van-gelder"}},{"type":"node","id":4585485389,"lat":52.1439602,"lon":6.198418,"tags":{"description":"11 November 1879 te Hilversum Nederland † 14 January 1943 te Auschwitz. Ester woonde Dieserstraat 23 en bereikte de leeftijd van 63 jaar.","historic":"memorial","memorial":"stolperstein","memorial:addr":"Dieserstraat 23, Zutphen","name":"Ester Berlijn-Zwelheim","network":"Stolpersteine Zutphen","person:date_of_birth":"1879-11-11","person:date_of_death":"1943-01-14","proposed:historic":"memorial","website":"https://stolpersteinezutphen.nl/persoon/ester-berlijn-zwelheim"}},{"type":"node","id":4585509790,"lat":52.1467068,"lon":6.1961806,"tags":{"description":"22 March 1896 te Onstwedde Nederland † 19 February 1943 te Auschwitz. Salomon woonde Havenstraat 49 en bereikte de leeftijd van 46 jaar. Beroep: Veehandelaar","historic":"memorial","memorial":"stolperstein","memorial:addr":"Havenstraat 49, Zutphen","name":"Salomon Jozep","network":"Stolpersteine Zutphen","person:date_of_birth":"1896-03-22","person:date_of_death":"1943-02-19","proposed:historic":"memorial","website":"https://stolpersteinezutphen.nl/persoon/salomon-jozep"}},{"type":"node","id":4585547092,"lat":52.1513211,"lon":6.2113044,"tags":{"description":"4 May 1875 te Paderborn Duitsland † 28 May 1943 te Sobibor. Ernst woonde Heeckerenlaan 62 en bereikte de leeftijd van 68 jaar.","historic":"memorial","memorial":"stolperstein","memorial:addr":"Heeckerenlaan 62, Zutphen","name":"Ernst Spanier","network":"Stolpersteine Zutphen","person:date_of_birth":"1875-05-04","person:date_of_death":"1943-05-28","proposed:historic":"memorial","website":"https://stolpersteinezutphen.nl/persoon/ernst-spanier"}},{"type":"node","id":4587086272,"lat":52.1479008,"lon":6.2013124,"tags":{"description":"9 October 1936 te Zutphen Nederland † 3 September 1943 te Auschwitz. Abraham Alexander woonde Coehoornsingel 20 en bereikte de leeftijd van 6 jaar.","historic":"memorial","memorial":"stolperstein","memorial:addr":"Coehoornsingel 20, Zutphen","name":"Abraham Alexander Velleman","network":"Stolpersteine Zutphen","person:date_of_birth":"1936-10-09","person:date_of_death":"1943-09-03","proposed:historic":"memorial","website":"https://stolpersteinezutphen.nl/persoon/abraham-alexander-velleman"}},{"type":"node","id":4587086273,"lat":52.1479,"lon":6.2012944,"tags":{"description":"13 June 1906 te Zutphen Nederland † 3 September 1943 te Auschwitz. Edith Esther woonde Coehoornsingel 20 en bereikte de leeftijd van 37 jaar.","historic":"memorial","memorial":"stolperstein","memorial:addr":"Coehoornsingel 20, Zutphen","name":"Edith Esther Velleman-Meijer","network":"Stolpersteine Zutphen","person:date_of_birth":"1906-06-13","person:date_of_death":"1943-09-03","proposed:historic":"memorial","website":"https://stolpersteinezutphen.nl/persoon/edith-esther-velleman-meijer"}},{"type":"node","id":4587086274,"lat":52.1478897,"lon":6.2008357,"tags":{"description":"21 June 1889 te Zutphen Nederland † 6 September 1944 te Auschwitz. Emanuel woonde Coehoornsingel 10 en bereikte de leeftijd van 55 jaar. Beroep: Slager","historic":"memorial","memorial":"stolperstein","memorial:addr":"Coehoornsingel 10, Zutphen","name":"Emanuel de Winter","network":"Stolpersteine Zutphen","person:date_of_birth":"1889-06-21","person:date_of_death":"1944-09-06","proposed:historic":"memorial","website":"https://stolpersteinezutphen.nl/persoon/emanuel-winter"}},{"type":"node","id":4587107525,"lat":52.144783,"lon":6.2034514,"tags":{"description":"11 January 1889 te Eibergen Nederland † 12 October 1942 te Auschwitz. Philip woonde Coehoornsingel 90 en bereikte de leeftijd van 53 jaar. Beroep: Veehandelaar","historic":"memorial","memorial":"stolperstein","memorial:addr":"Coehoornsingel 90, Zutphen","name":"Philip de Vries","network":"Stolpersteine Zutphen","person:date_of_birth":"1889-01-11","person:date_of_death":"1942-10-12","proposed:historic":"memorial","website":"https://stolpersteinezutphen.nl/persoon/philip-vries"}},{"type":"node","id":4587107526,"lat":52.1447962,"lon":6.203453,"tags":{"description":"16 March 1887 te Diepenheim Nederland † 12 October 1942 te Auschwitz. Gezina woonde Coehoornsingel 90 en bereikte de leeftijd van 55 jaar.","historic":"memorial","memorial":"stolperstein","memorial:addr":"Coehoornsingel 90, Zutphen","name":"Gezina de Vries-Mansfeldt","network":"Stolpersteine Zutphen","person:date_of_birth":"1887-03-16","person:date_of_death":"1942-10-12","proposed:historic":"memorial","website":"https://stolpersteinezutphen.nl/persoon/gezina-vries-mansfeldt"}},{"type":"node","id":4587127166,"lat":52.1469827,"lon":6.1994707,"tags":{"description":"25 July 1918 te Zutphen Nederland † 4 September 1942 te Auschwitz. Simon woonde Deventerweg 1 en bereikte de leeftijd van 24 jaar.","historic":"memorial","memorial":"stolperstein","memorial:addr":"Deventerweg 1, Zutphen","name":"Simon Weijl","network":"Stolpersteine Zutphen","person:date_of_birth":"1918-07-25","person:date_of_death":"1942-09-04","proposed:historic":"memorial","website":"https://stolpersteinezutphen.nl/persoon/simon-weijl"}},{"type":"node","id":4587127167,"lat":52.1469786,"lon":6.1994265,"tags":{"description":"5 April 1886 te Opsterland Nederland † 9 April 1943 te Sobibor. Helena woonde Deventerweg 1 en bereikte de leeftijd van 57 jaar.","historic":"memorial","memorial":"stolperstein","memorial:addr":"Deventerweg 1, Zutphen","name":"Helena Weijl-Schaap","network":"Stolpersteine Zutphen","person:date_of_birth":"1886-04-05","person:date_of_death":"1943-04-09","proposed:historic":"memorial","website":"https://stolpersteinezutphen.nl/persoon/helena-weijl-schaap"}},{"type":"node","id":4587145190,"lat":52.1511075,"lon":6.2077404,"tags":{"description":"31 May 1889 te Hilversum Nederland † 3 December 1942 te Auschwitz. Johanna woonde Deventerweg 141 en bereikte de leeftijd van 53 jaar. Beroep: Huishoudster","historic":"memorial","memorial":"stolperstein","memorial:addr":"Deventerweg 141, Zutphen","name":"Johanna Elzas-Schulman","network":"Stolpersteine Zutphen","person:date_of_birth":"1889-05-31","person:date_of_death":"1942-12-03","proposed:historic":"memorial","website":"https://stolpersteinezutphen.nl/persoon/johanna-elzas-schulman"}},{"type":"node","id":4587150688,"lat":52.1469517,"lon":6.2018255,"tags":{"description":"5 July 1879 te Bergh Nederland † 13 March 1943 te Sobibor. Julia woonde Deventerweg 2 en bereikte de leeftijd van 63 jaar.","historic":"memorial","memorial":"stolperstein","memorial:addr":"Deventerweg 2, Zutphen","name":"Julia ten Bosch-Hijmans","network":"Stolpersteine Zutphen","person:date_of_birth":"1879-07-05","person:date_of_death":"1943-03-13","proposed:historic":"memorial","website":"https://stolpersteinezutphen.nl/persoon/julia-bosch-hijmans"}},{"type":"node","id":4587151847,"lat":52.146959,"lon":6.201945,"tags":{"description":"9 May 1874 te Borculo Nederland † 14 May 1943 te Sobibor. Alexander woonde Deventerweg 4 en bereikte de leeftijd van 69 jaar. Beroep: Koopman","historic":"memorial","memorial":"stolperstein","memorial:addr":"Deventerweg 4, Zutphen","name":"Alexander Meijer","network":"Stolpersteine Zutphen","person:date_of_birth":"1874-05-09","person:date_of_death":"1943-05-14","proposed:historic":"memorial","website":"https://stolpersteinezutphen.nl/persoon/alexander-meijer"}},{"type":"node","id":4587167947,"lat":52.1490605,"lon":6.2050104,"tags":{"description":"30 August 1882 te Groningen † 7 May 1943 te Sobibor. Elkan woonde Deventerweg 69 en bereikte de leeftijd van 60 jaar.","historic":"memorial","memorial":"stolperstein","memorial:addr":"Deventerweg 69, Zutphen","name":"Elkan Sanders","network":"Stolpersteine","person:date_of_birth":"1882-08-30","person:date_of_death":"1943-05-07","proposed:historic":"memorial","website":"https://stolpersteinezutphen.nl/persoon/elkan-sanders"}},{"type":"node","id":4587171352,"lat":52.1493963,"lon":6.2054485,"tags":{"description":"17 May 1921 te Winterswijk Nederland † 28 January 1944 te Auschwitz. Theodora Josephia woonde Deventerweg 81 en bereikte de leeftijd van 22 jaar. Beroep: Huishoudster","historic":"memorial","memorial":"stolperstein","memorial:addr":"Deventerweg 81, Zutphen","name":"Theodora Josephia Windmuller","network":"Stolpersteine Zutphen","person:date_of_birth":"1921-05-17","person:date_of_death":"1944-01-28","proposed:historic":"memorial","website":"https://stolpersteinezutphen.nl/persoon/theodora-josephia-windmuller"}},{"type":"node","id":4587171353,"lat":52.1493891,"lon":6.2054371,"tags":{"description":"2 September 1881 te Arnhem Nederland † 6 September 1944 te Auschwitz. Veronica woonde Deventerweg 81 en bereikte de leeftijd van 63 jaar.","historic":"memorial","memorial":"stolperstein","memorial:addr":"Deventerweg 81, Zutphen","name":"Veronica Vromen-Cohen","network":"Stolpersteine Zutphen","person:date_of_birth":"1881-09-18","person:date_of_death":"1944-09-06","proposed:historic":"memorial","website":"https://stolpersteinezutphen.nl/persoon/veronica-vromen-cohen"}},{"type":"node","id":4587179254,"lat":52.1439665,"lon":6.1984197,"tags":{"description":"15 January 1884 te Zutphen Nederland † 14 January 1943 te Auschwitz. Hartog woonde Dieserstraat 23 en bereikte de leeftijd van 58 jaar. Beroep: Koopman","historic":"memorial","memorial":"stolperstein","memorial:addr":"Dieserstraat 23, Zutphen","name":"Hartog Berlijn","network":"Stolpersteine Zutphen","person:date_of_birth":"1884-01-15","person:date_of_death":"1943-01-14","proposed:historic":"memorial","website":"https://stolpersteinezutphen.nl/persoon/hartog-berlijn"}},{"type":"node","id":4587550023,"lat":52.1465341,"lon":6.1953466,"tags":{"description":"3 November 1888 te Zutphen Nederland † 5 March 1943 te Sobibor. Samuel woonde Havenstraat 36 en bereikte de leeftijd van 54 jaar.","historic":"memorial","memorial":"stolperstein","memorial:addr":"Havenstraat 36, Zutphen","name":"Samuel Philips","network":"Stolpersteine Zutphen","person:date_of_birth":"1888-11-03","person:date_of_death":"1943-03-05","proposed:historic":"memorial","website":"https://stolpersteinezutphen.nl/persoon/samuel-philips"}},{"type":"node","id":4587563039,"lat":52.1467968,"lon":6.1963029,"tags":{"description":"26 September 1930 te Laufersweiler Duitsland † 26 May 1944 te Auschwitz. Gerd woonde Havenstraat 49 en bereikte de leeftijd van 14 jaar. Beroep: Knecht","historic":"memorial","memorial":"stolperstein","memorial:addr":"Havenstraat 49, Zutphen","name":"Gerd Mayer","network":"Stolpersteine Zutphen","person:date_of_birth":"1930-09-26","person:date_of_death":"1944-05-26","proposed:historic":"memorial","website":"https://stolpersteinezutphen.nl/persoon/gerd-mayer"}},{"type":"node","id":4587563040,"lat":52.1467788,"lon":6.1962785,"tags":{"description":"21 January 1930 te Zutphen Nederland † 19 February 1943 te Auschwitz. Wolf woonde Havenstraat 49 en bereikte de leeftijd van 13 jaar.","historic":"memorial","memorial":"stolperstein","memorial:addr":"Havenstraat 49, Zutphen","name":"Wolf Jozep","network":"Stolpersteine Zutphen","person:date_of_birth":"1930-01-21","person:date_of_death":"1943-02-19","proposed:historic":"memorial","website":"https://stolpersteinezutphen.nl/persoon/wolf-jozep"}},{"type":"node","id":4587563041,"lat":52.1467608,"lon":6.196254,"tags":{"description":"27 March 1927 te Zutphen Nederland † 19 February 1943 te Auschwitz. Philip Wolf woonde Havenstraat 49 en bereikte de leeftijd van 15 jaar.","historic":"memorial","memorial":"stolperstein","memorial:addr":"Havenstraat 49, Zutphen","name":"Philip Wolf Jozep","network":"Stolpersteine Zutphen","person:date_of_birth":"1927-03-27","person:date_of_death":"1943-02-19","proposed:historic":"memorial","website":"https://stolpersteinezutphen.nl/persoon/philip-wolf-jozep"}},{"type":"node","id":4587563042,"lat":52.1467428,"lon":6.1962295,"tags":{"description":"17 November 1925 te Zutphen Nederland † 19 February 1943 te Auschwitz. Rose Claire woonde Havenstraat 49 en bereikte de leeftijd van 17 jaar.","historic":"memorial","memorial":"stolperstein","memorial:addr":"Havenstraat 49, Zutphen","name":"Rose Claire Jozep","network":"Stolpersteine Zutphen","person:date_of_birth":"1925-11-17","person:date_of_death":"1943-02-19","proposed:historic":"memorial","website":"https://stolpersteinezutphen.nl/persoon/rose-claire-jozep"}},{"type":"node","id":4587563043,"lat":52.1467248,"lon":6.1962051,"tags":{"description":"9 December 1902 te Zutphen Nederland † 19 February 1943 te Auschwitz. Mientje woonde Havenstraat 49 en bereikte de leeftijd van 40 jaar.","historic":"memorial","memorial":"stolperstein","memorial:addr":"Havenstraat 49, Zutphen","name":"Mientje Jozep-Weijel","network":"Stolpersteine Zutphen","person:date_of_birth":"1902-12-09","person:date_of_death":"1943-02-19","proposed:historic":"memorial","website":"https://stolpersteinezutphen.nl/persoon/mientje-jozep-weijel"}},{"type":"node","id":4587570800,"lat":52.1513522,"lon":6.2114261,"tags":{"description":"15 March 1924 te Elberfeld Duitsland † 28 February 1943 te Auschwitz. Richard Otto woonde Heeckerenlaan 62 en bereikte de leeftijd van 18 jaar.","historic":"memorial","memorial":"stolperstein","memorial:addr":"Heeckerenlaan 62, Zutphen","name":"Richard Otto Aaron","network":"Stolpersteine Zutphen","person:date_of_birth":"1924-03-15","person:date_of_death":"1943-02-28","proposed:historic":"memorial","website":"https://stolpersteinezutphen.nl/persoon/richard-otto-aaron"}},{"type":"node","id":4587570801,"lat":52.1513418,"lon":6.2113856,"tags":{"description":"13 November 1892 te Jülich Duitsland † 31 May 1945 te Bergen Belsen. Ida woonde Heeckerenlaan 62 en bereikte de leeftijd van 52 jaar.","historic":"memorial","memorial":"stolperstein","memorial:addr":"Heeckerenlaan 62, Zutphen","name":"Ida Aaron-Weyl","network":"Stolpersteine Zutphen","person:date_of_birth":"1892-11-13","person:date_of_death":"1945-05-31","proposed:historic":"memorial","website":"https://stolpersteinezutphen.nl/persoon/ida-aaron-weyl"}},{"type":"node","id":4587570802,"lat":52.1513315,"lon":6.211345,"tags":{"description":"11 January 1887 te Velbert Duitsland † 19 April 1945 te Schipkau - Tröbitz. Dr. Siegfried woonde Heeckerenlaan 62 en bereikte de leeftijd van 58 jaar. Beroep: Advocaat","historic":"memorial","memorial":"stolperstein","memorial:addr":"Heeckerenlaan 62, Zutphen","name":"Dr. Siegfried Aaron","network":"Stolpersteine Zutphen","person:date_of_birth":"1887-01-11","person:date_of_death":"1945-04-19","proposed:historic":"memorial","website":"https://stolpersteinezutphen.nl/persoon/dr-siegfried-aaron"}},{"type":"node","id":4587668275,"lat":52.1494131,"lon":6.2079541,"tags":{"description":"15 March 1910 te Amsterdam Nederland † 27 November 1942 te Auschwitz. Anna woonde Hemonystraat 10 en bereikte de leeftijd van 32 jaar.","historic":"memorial","memorial":"stolperstein","memorial:addr":"Hemonystraat 10, Zutphen","name":"Anna van de Kamp-Cohen","network":"Stolpersteine Zutphen","person:date_of_birth":"1910-03-15","person:date_of_death":"1942-11-27","proposed:historic":"memorial","website":"https://stolpersteinezutphen.nl/persoon/anna-kamp-cohen"}},{"type":"node","id":4589514391,"lat":52.146386,"lon":6.201977,"tags":{"description":"11 November 1926 te Zutphen Nederland † 14 January 1943 te Auschwitz. Julie Eva woonde Jacob Damsingel 8 en bereikte de leeftijd van 16 jaar.","historic":"memorial","memorial":"stolperstein","memorial:addr":"Jacob Damsingel 8, Zutphen","name":"Julie Eva Mansfeldt","network":"Stolpersteine Zutphen","person:date_of_birth":"1926-11-11","person:date_of_death":"1943-01-14","proposed:historic":"memorial","website":"https://stolpersteinezutphen.nl/persoon/julie-eva-mansfeldt"}},{"type":"node","id":4589514392,"lat":52.1464,"lon":6.2019732,"tags":{"description":"28 April 1924 te Zutphen Nederland † 10 February 1943 te Auschwitz. Henri woonde Jacob Damsingel 8 en bereikte de leeftijd van 18 jaar.","historic":"memorial","memorial":"stolperstein","memorial:addr":"Jacob Damsingel 8, Zutphen","name":"Henri Mansfeldt","network":"Stolpersteine Zutphen","person:date_of_birth":"1924-04-28","person:date_of_death":"1943-02-10","proposed:historic":"memorial","website":"https://stolpersteinezutphen.nl/persoon/henri-mansfeldt"}},{"type":"node","id":4589514393,"lat":52.146414,"lon":6.2019694,"tags":{"description":"23 January 1899 te Zutphen Nederland † 14 January 1943 te Auschwitz. Sientje woonde Jacob Damsingel 8 en bereikte de leeftijd van 43 jaar.","historic":"memorial","memorial":"stolperstein","memorial:addr":"Jacob Damsingel 8, Zutphen","name":"Sientje Mansfeldt-Vromen","network":"Stolpersteine Zutphen","person:date_of_birth":"1899-01-23","person:date_of_death":"1943-01-14","proposed:historic":"memorial","website":"https://stolpersteinezutphen.nl/persoon/sientje-mansfeldt-vromen"}},{"type":"node","id":4589514394,"lat":52.146428,"lon":6.2019656,"tags":{"description":"8 November 1888 te Diepenheim Nederland † 14 January 1943 te Auschwitz. Hartog woonde Jacob Damsingel 8 en bereikte de leeftijd van 54 jaar. Beroep: Manufacturier","historic":"memorial","memorial":"stolperstein","memorial:addr":"Jacob Damsingel 8, Zutphen","name":"Hartog Mansfeldt","network":"Stolpersteine Zutphen","person:date_of_birth":"1888-11-08","person:date_of_death":"1943-01-14","proposed:historic":"memorial","website":"https://stolpersteinezutphen.nl/persoon/hartog-mansfeldt-0"}},{"type":"node","id":4590494410,"lat":52.1442999,"lon":6.1982329,"tags":{"description":"15 March 1877 te Rheden Nederland † 11 March 1942 te Zutphen. Roosje woonde Lievevrouwestraat 14 en bereikte de leeftijd van 64 jaar.","historic":"memorial","memorial":"stolperstein","memorial:addr":"Lievevrouwestraat 14, Zutphen","name":"Roosje Cohen-Hollander","network":"Stolpersteine Zutphen","person:date_of_birth":"1877-03-15","person:date_of_death":"1942-03-11","proposed:historic":"memorial","website":"https://stolpersteinezutphen.nl/node/12869"}},{"type":"node","id":4590494411,"lat":52.144305,"lon":6.1982073,"tags":{"description":"29 September 1873 te Zutphen Nederland † 2 April 1943 te Sobibor. Lazarus woonde Lievevrouwestraat 14 en bereikte de leeftijd van 69 jaar. Beroep: Koopman","historic":"memorial","memorial":"stolperstein","memorial:addr":"Lievevrouwestraat 14, Zutphen","name":"Lazarus Cohen","network":"Stolpersteine Zutphen","person:date_of_birth":"1873-09-29","person:date_of_death":"1943-04-02","proposed:historic":"memorial","website":"https://stolpersteinezutphen.nl/persoon/lazarus-cohen"}},{"type":"node","id":4590499009,"lat":52.1442672,"lon":6.198468,"tags":{"description":"9 October 1931 te Zutphen Nederland † 12 February 1943 te Auschwitz. Karolina woonde Lievevrouwestraat 20 a en bereikte de leeftijd van 11 jaar.","historic":"memorial","memorial":"stolperstein","memorial:addr":"Lievevrouwestraat 20a, Zutphen","name":"Karolina Levie","network":"Stolpersteine Zutphen","person:date_of_birth":"1931-10-09","person:date_of_death":"1943-02-12","proposed:historic":"memorial","website":"https://stolpersteinezutphen.nl/persoon/karolina-levie"}},{"type":"node","id":4590499010,"lat":52.144271,"lon":6.1984389,"tags":{"description":"10 April 1907 te Rheden Nederland † 30 April 1943 te Auschwitz. Izaäc woonde Lievevrouwestraat 20 a en bereikte de leeftijd van 36 jaar.","historic":"memorial","memorial":"stolperstein","memorial:addr":"Lievevrouwestraat 20a, Zutphen","name":"Izaäc Levie","network":"Stolpersteine Zutphen","person:date_of_birth":"1907-04-10","person:date_of_death":"1943-04-30","proposed:historic":"memorial","website":"https://www.stolpersteinezutphen.nl/persoon/iza%C3%A4c-levie"}},{"type":"node","id":4590499011,"lat":52.1442747,"lon":6.1984099,"tags":{"description":"2 August 1906 te Amsterdam Nederland † 12 February 1943 te Auschwitz. Marianne woonde Lievevrouwestraat 20 a en bereikte de leeftijd van 36 jaar.","historic":"memorial","memorial":"stolperstein","memorial:addr":"Lievevrouwestraat 20a, Zutphen","name":"Marianne Levie-Verdoner","network":"Stolpersteine Zutphen","person:date_of_birth":"1906-08-02","person:date_of_death":"1943-02-12","proposed:historic":"memorial","website":"https://stolpersteinezutphen.nl/persoon/marianne-levie-verdoner"}},{"type":"node","id":4590541625,"lat":52.1467203,"lon":6.1985631,"tags":{"description":"2 April 1877 te Zutphen Nederland † 27 November 1942 te Auschwitz. Salomon woonde Nieuwstad 103 en bereikte de leeftijd van 65 jaar. Beroep: Kleermaker","historic":"memorial","memorial":"stolperstein","memorial:addr":"Nieuwstad 103, Zutphen","name":"Salomon Hanouwer","network":"Stolpersteine Zutphen","person:date_of_birth":"1877-04-02","person:date_of_death":"1942-11-27","proposed:historic":"memorial","website":"https://stolpersteinezutphen.nl/persoon/salomon-hanouwer"}},{"type":"node","id":4590541626,"lat":52.1467255,"lon":6.1985718,"tags":{"description":"29 January 1877 te Culemborg Nederland † 27 November 1942 te Auschwitz. Matje woonde Nieuwstad 103 en bereikte de leeftijd van 65 jaar.","historic":"memorial","memorial":"stolperstein","memorial:addr":"Nieuwstad 103, Zutphen","name":"Matje Hanouwer-Davids","network":"Stolpersteine Zutphen","person:date_of_birth":"1877-01-29","person:date_of_death":"1942-11-27","proposed:historic":"memorial","website":"https://stolpersteinezutphen.nl/persoon/matje-hanouwer-davids"}},{"type":"node","id":4590580637,"lat":52.1437727,"lon":6.1967899,"tags":{"description":"24 October 1895 te Wisch Nederland † 21 May 1943 te Sobibor. Ella woonde Nieuwstad 30 en bereikte de leeftijd van 47 jaar.","historic":"memorial","image":"https://upload.wikimedia.org/wikipedia/commons/b/bc/Nieuwstad_30_Zutphen_Stolpersteine.jpg","memorial":"stolperstein","memorial:addr":"Nieuwstad 30, Zutphen","memorial:text":"Hier woonde Ella Wolf geb. 1895 vermoord 21-5-1943 Sobibor","name":"Ella Wolf","network":"Stolpersteine Zutphen","person:date_of_birth":"1895-10-24","person:date_of_death":"1943-05-21","website":"https://stolpersteinezutphen.nl/persoon/ella-wolf"}},{"type":"node","id":4590580638,"lat":52.1437777,"lon":6.1967935,"tags":{"description":"10 November 1869 te Zutphen Nederland † 2 July 1943 te Sobibor. Elisabeth woonde Nieuwstad 30 en bereikte de leeftijd van 73 jaar.","historic":"memorial","memorial":"stolperstein","memorial:addr":"Nieuwstad 30, Zutphen","name":"Elisabeth Weijel-Rubens","network":"Stolpersteine Zutphen","person:date_of_birth":"1869-11-10","person:date_of_death":"1942-07-02","proposed:historic":"memorial","website":"https://stolpersteinezutphen.nl/persoon/elisabeth-weijel-rubens"}},{"type":"node","id":4590580639,"lat":52.1437826,"lon":6.196797,"tags":{"description":"22 December 1868 te Groenlo Nederland † 26 March 1943 te Sobibor. Abraham woonde Nieuwstad 30 en bereikte de leeftijd van 74 jaar. Beroep: Manufacturier","historic":"memorial","image":"https://upload.wikimedia.org/wikipedia/commons/b/bc/Nieuwstad_30_Zutphen_Stolpersteine.jpg","memorial":"stolperstein","memorial:addr":"Nieuwstad 30, Zutphen","memorial:text":"Hier woonde Abraham Philip geb. 1888 vermoord 26-3-1943 Sobibor","name":"Abraham Philip","network":"Stolpersteine Zutphen","person:date_of_birth":"1868-12-22","person:date_of_death":"1943-03-26","website":"https://stolpersteinezutphen.nl/persoon/abraham-philip"}},{"type":"node","id":4590583509,"lat":52.1441589,"lon":6.1969441,"tags":{"description":"8 March 1919 te Steenwijk Nederland † 31 March 1944 te Bergen Belsen. Willem woonde Nieuwstad 37 en bereikte de leeftijd van 25 jaar. Overige onderuikadressen: Waterstraat 18 Beroep: Leraar","historic":"memorial","image":"https://upload.wikimedia.org/wikipedia/commons/6/64/Nieuwstad_37_Zutphen_Stolpersteine.jpg","memorial":"stolperstein","memorial:addr":"Nieuwstad 37, Zutphen","memorial:text":"Hier woonde Willem Boutelje geb. 1915 gedeporteerd 1942 vermoord 11-6-1943 Midden-Europa","name":"Willem Boutelje","network":"Stolpersteine Zutphen","person:date_of_birth":"1919-03-08","person:date_of_death":"1944-03-31","website":"https://stolpersteinezutphen.nl/persoon/willem-boutelje"}},{"type":"node","id":4590583510,"lat":52.1441688,"lon":6.196954,"tags":{"description":"3 June 1917 te Nijmegen Nederland † 2 November 1942 te Auschwitz. Hester woonde Nieuwstad 37 en bereikte de leeftijd van 25 jaar. Beroep: Verkoopster","historic":"memorial","image":"https://upload.wikimedia.org/wikipedia/commons/6/64/Nieuwstad_37_Zutphen_Stolpersteine.jpg","memorial":"stolperstein","memorial:addr":"Nieuwstad 37, Zutphen","memorial:text":"Hier woonde Hester Boutelje-Horn geb. 1917 gedeporteerd 1942 vermoord 2-11-1942 Auschwitz","name":"Hester Boutelje-Horn","network":"Stolpersteine Zutphen","person:date_of_birth":"1917-07-03","person:date_of_death":"1942-11-02","website":"https://stolpersteinezutphen.nl/persoon/hester-boutelje-horn"}},{"type":"node","id":4590594038,"lat":52.1441383,"lon":6.1971427,"tags":{"description":"13 January 1934 te Steenderen Nederland † 8 October 1942 te Auschwitz. Mozes woonde Nieuwstad 40 a en bereikte de leeftijd van 8 jaar.","historic":"memorial","memorial":"stolperstein","memorial:addr":"Nieuwstad 40a, Zutphen","name":"Mozes Aussen","network":"Stolpersteine Zutphen","person:date_of_birth":"1934-01-13","person:date_of_death":"1942-10-08","proposed:historic":"memorial","website":"https://stolpersteinezutphen.nl/persoon/mozes-aussen"}},{"type":"node","id":4590594039,"lat":52.1441318,"lon":6.1971347,"tags":{"description":"27 July 1932 te Steenderen Nederland † 8 October 1942 te Auschwitz. Karolina woonde Nieuwstad 40 a en bereikte de leeftijd van 10 jaar.","historic":"memorial","memorial":"stolperstein","memorial:addr":"Nieuwstad 40a, Zutphen","name":"Karolina Aussen","network":"Stolpersteine Zutphen","person:date_of_birth":"1932-07-27","person:date_of_death":"1942-10-08","proposed:historic":"memorial","website":"https://stolpersteinezutphen.nl/persoon/karolina-aussen"}},{"type":"node","id":4590594040,"lat":52.1441253,"lon":6.1971268,"tags":{"description":"27 July 1932 te Steenderen Nederland † 8 October 1942 te Auschwitz. Jenny woonde Nieuwstad 40 a en bereikte de leeftijd van 10 jaar.","historic":"memorial","memorial":"stolperstein","memorial:addr":"Nieuwstad 40a, Zutphen","name":"Jenny Aussen","network":"Stolpersteine Zutphen","person:date_of_birth":"1942-07-27","person:date_of_death":"1942-10-08","proposed:historic":"memorial","website":"https://stolpersteinezutphen.nl/persoon/jenny-aussen"}},{"type":"node","id":4590594041,"lat":52.1441188,"lon":6.1971188,"tags":{"description":"25 August 1902 te Dieren Nederland † 8 October 1942 te Auschwitz. Koosje woonde Nieuwstad 40 a en bereikte de leeftijd van 40 jaar.","historic":"memorial","memorial":"stolperstein","memorial:addr":"Nieuwstad 40a, Zutphen","name":"Koosje Aussen-Levie","network":"Stolpersteine Zutphen","person:date_of_birth":"1902-08-25","person:date_of_death":"1942-10-08","proposed:historic":"memorial","website":"https://stolpersteinezutphen.nl/persoon/koosje-aussen-levie"}},{"type":"node","id":4590594042,"lat":52.1441123,"lon":6.1971108,"tags":{"description":"23 August 1900 te Steenderen Nederland † 5 January 1943 te Blechhammer. Meijer Maximiliaan woonde Nieuwstad 40 a en bereikte de leeftijd van 42 jaar. Beroep: Slager","historic":"memorial","memorial":"stolperstein","memorial:addr":"Nieuwstad 40a, Zutphen","name":"Meijer Maximiliaan Aussen","network":"Stolpersteine Zutphen","person:date_of_birth":"1900-08-23","person:date_of_death":"1943-01-05","proposed:historic":"memorial","website":"https://stolpersteinezutphen.nl/persoon/meijer-maximiliaan-aussen"}},{"type":"node","id":4590599801,"lat":52.1441814,"lon":6.1971898,"tags":{"description":"11 February 1925 te Zutphen Nederland † 31 March 1944 te Auschwitz. Izak woonde Nieuwstad 42 en bereikte de leeftijd van 19 jaar.","historic":"memorial","memorial":"stolperstein","memorial:addr":"Nieuwstad 42, Zutphen","name":"Izak Dormits","network":"Stolpersteine Zutphen","person:date_of_birth":"1925-02-11","person:date_of_death":"1944-03-31","proposed:historic":"memorial","website":"https://stolpersteinezutphen.nl/persoon/izak-dormits"}},{"type":"node","id":4590599802,"lat":52.1441748,"lon":6.1971819,"tags":{"description":"5 March 1921 te Zutphen Nederland † 16 April 1943 te Sobibor. Louis Jacob woonde Nieuwstad 42 en bereikte de leeftijd van 22 jaar.","historic":"memorial","memorial":"stolperstein","memorial:addr":"Nieuwstad 42, Zutphen","name":"Louis Jacob Dormits","network":"Stolpersteine Zutphen","person:date_of_birth":"1921-03-05","person:date_of_death":"1943-04-16","proposed:historic":"memorial","website":"https://stolpersteinezutphen.nl/persoon/louis-jacob-dormits"}},{"type":"node","id":4590599803,"lat":52.1441682,"lon":6.197174,"tags":{"description":"3 August 1893 te Rijssen Nederland † 28 May 1943 te Sobibor. Sientje woonde Nieuwstad 42 en bereikte de leeftijd van 49 jaar.","historic":"memorial","memorial":"stolperstein","memorial:addr":"Nieuwstad 42, Zutphen","name":"Sientje Dormits-Cohen","network":"Stolpersteine Zutphen","person:date_of_birth":"1893-08-03","person:date_of_death":"1943-05-28","proposed:historic":"memorial","website":"https://stolpersteinezutphen.nl/persoon/sientje-dormits-cohen"}},{"type":"node","id":4590599804,"lat":52.1441615,"lon":6.1971661,"tags":{"description":"28 July 1887 te Zutphen Nederland † 28 May 1943 te Sobibor. Herman woonde Nieuwstad 42 en bereikte de leeftijd van 55 jaar. Beroep: Slager","historic":"memorial","memorial":"stolperstein","memorial:addr":"Nieuwstad 42, Zutphen","name":"Herman Dormits","network":"Stolpersteine Zutphen","person:date_of_birth":"1887-07-28","person:date_of_death":"1943-05-28","proposed:historic":"memorial","website":"https://stolpersteinezutphen.nl/persoon/herman-dormits"}},{"type":"node","id":4590606803,"lat":52.1464091,"lon":6.1981335,"tags":{"description":"7 June 1902 te Druten Nederland † 21 August 1943 te Zutphen. Salomon woonde Nieuwstad 91 en bereikte de leeftijd van 41 jaar. Beroep: Pensionhouder","historic":"memorial","memorial":"stolperstein","memorial:addr":"Nieuwstad 91, Zutphen","name":"Salomon Israël","network":"Stolpersteine Zutphen","person:date_of_birth":"1902-06-07","person:date_of_death":"1943-08-21","proposed:historic":"memorial","website":"https://stolpersteinezutphen.nl/node/5812"}},{"type":"node","id":4590606804,"lat":52.1464007,"lon":6.1981223,"tags":{"description":"9 February 1870 te Doesburg Nederland † 14 May 1943 te Sobibor. Schoontje woonde Nieuwstad 91 en bereikte de leeftijd van 73 jaar.","historic":"memorial","memorial":"stolperstein","memorial:addr":"Nieuwstad 91, Zutphen","name":"Schoontje Israël-Cohen","network":"Stolpersteine Zutphen","person:date_of_birth":"1870-02-09","person:date_of_death":"1943-05-14","proposed:historic":"memorial","website":"https://www.stolpersteinezutphen.nl/persoon/schoontje-isra%C3%ABl-cohen"}},{"type":"node","id":4590804917,"lat":52.146145,"lon":6.2031585,"tags":{"description":"24 September 1932 te Zutphen Nederland † 23 July 1943 te Sobibor. Jozef (Jo-Jopie) woonde Rozenhoflaan 22 en bereikte de leeftijd van 10 jaar.","historic":"memorial","memorial":"stolperstein","memorial:addr":"Rozenhoflaan 22, Zutphen","name":"Jozef (Jo-Jopie) de Winter","network":"Stolpersteine Zutphen","person:date_of_birth":"1932-09-24","person:date_of_death":"1943-07-23","proposed:historic":"memorial","website":"https://stolpersteinezutphen.nl/persoon/jozef-jo-jopie-winter"}},{"type":"node","id":4590804918,"lat":52.1461591,"lon":6.2031511,"tags":{"description":"26 March 1929 te Zutphen Nederland † 23 July 1943 te Sobibor. Sally woonde Rozenhoflaan 22 en bereikte de leeftijd van 14 jaar.","historic":"memorial","memorial":"stolperstein","memorial:addr":"Rozenhoflaan 22, Zutphen","name":"Sally de Winter","network":"Stolpersteine Zutphen","person:date_of_birth":"1926-03-26","person:date_of_death":"1943-07-23","proposed:historic":"memorial","website":"https://stolpersteinezutphen.nl/persoon/sally-winter"}},{"type":"node","id":4590804919,"lat":52.1461732,"lon":6.2031438,"tags":{"description":"9 May 1907 te Londen Engeland † 23 July 1943 te Sobibor. Frederika (Frieda) Isadore woonde Rozenhoflaan 22 en bereikte de leeftijd van 36 jaar.","historic":"memorial","memorial":"stolperstein","memorial:addr":"Rozenhoflaan 22, Zutphen","name":"Frederika (Frieda) Isadore de Winter-Aptroot","network":"Stolpersteine Zutphen","person:date_of_birth":"1907-05-09","person:date_of_death":"1943-07-23","proposed:historic":"memorial","website":"https://stolpersteinezutphen.nl/persoon/frederika-frieda-isadore-winter-aptroot"}},{"type":"node","id":4590804920,"lat":52.1461873,"lon":6.2031364,"tags":{"description":"10 June 1894 te Zutphen Nederland † 23 July 1943 te Sobibor. Ferdinand woonde Rozenhoflaan 22 en bereikte de leeftijd van 49 jaar. Beroep: Slager","historic":"memorial","memorial":"stolperstein","memorial:addr":"Rozenhoflaan 22, Zutphen","name":"Ferdinand de Winter","network":"Stolpersteine Zutphen","person:date_of_birth":"1894-06-10","person:date_of_death":"1943-07-23","proposed:historic":"memorial","website":"https://stolpersteinezutphen.nl/persoon/ferdinand-winter"}},{"type":"node","id":4590819190,"lat":52.1460317,"lon":6.2032292,"tags":{"description":"26 October 1913 te Zutphen Nederland † 30 April 1943 te Auschwitz. Karel woonde Rozenhoflaan 26 a en bereikte de leeftijd van 29 jaar.","historic":"memorial","memorial":"stolperstein","memorial:addr":"Rozenhoflaan 26a, Zutphen","name":"Karel Philips","network":"Stolpersteine Zutphen","person:date_of_birth":"1913-10-26","person:date_of_death":"1943-04-30","proposed:historic":"memorial","website":"https://stolpersteinezutphen.nl/persoon/karel-philips"}},{"type":"node","id":4590819191,"lat":52.146044,"lon":6.2032227,"tags":{"description":"17 October 1910 te Zutphen Nederland † 14 October 1941 te Mauthausen. Leo woonde Rozenhoflaan 26 a en bereikte de leeftijd van 30 jaar. Beroep: Slager","historic":"memorial","memorial":"stolperstein","memorial:addr":"Rozenhoflaan 26a, Zutphen","name":"Leo Philips","network":"Stolpersteine Zutphen","person:date_of_birth":"1910-10-17","person:date_of_death":"1941-10-14","proposed:historic":"memorial","website":"https://stolpersteinezutphen.nl/persoon/leo-philips"}},{"type":"node","id":4590819192,"lat":52.1460564,"lon":6.2032163,"tags":{"description":"29 June 1879 te Guttentag Duitsland † 14 January 1943 te Auschwitz. Bertha woonde Rozenhoflaan 26 a en bereikte de leeftijd van 63 jaar.","historic":"memorial","memorial":"stolperstein","memorial:addr":"Rozenhoflaan 26a, Zutphen","name":"Bertha Philips-Cohen","network":"Stolpersteine Zutphen","person:date_of_birth":"1879-06-29","person:date_of_death":"1943-01-14","proposed:historic":"memorial","website":"https://stolpersteinezutphen.nl/persoon/bertha-philips-cohen"}},{"type":"node","id":4590819193,"lat":52.1460688,"lon":6.2032098,"tags":{"description":"4 August 1878 te Zutphen Nederland † 14 January 1943 te Auschwitz. Alexander woonde Rozenhoflaan 26 a en bereikte de leeftijd van 64 jaar. Beroep: Slager (Export)","historic":"memorial","memorial":"stolperstein","memorial:addr":"Rozenhoflaan 26a, Zutphen","name":"Alexander Philips","network":"Stolpersteine Zutphen","person:date_of_birth":"1878-08-04","person:date_of_death":"1943-01-14","proposed:historic":"memorial","website":"https://stolpersteinezutphen.nl/persoon/alexander-philips"}},{"type":"node","id":4590844131,"lat":52.1479035,"lon":6.2105698,"tags":{"description":"15 April 1899 te Deventer Nederland † 31 October 1941 te Mauthausen. Marcus woonde Sidneystraat 80 en bereikte de leeftijd van 42 jaar. Overige onderuikadressen: Barlheze 42 Beroep: Slager","historic":"memorial","memorial":"stolperstein","memorial:addr":"Sidneystraat 80, Zutphen","name":"Marcus Turksma","network":"Stolpersteine Zutphen","person:date_of_birth":"1899-04-15","person:date_of_death":"1941-10-31","proposed:historic":"memorial","website":"https://stolpersteinezutphen.nl/persoon/marcus-turksma"}},{"type":"node","id":4591214737,"lat":52.1450943,"lon":6.1968089,"tags":{"description":"1 December 1928 te Zutphen Nederland † 6 October 1944 te Auschwitz. Eva Edith woonde Stationsweg 23 en bereikte de leeftijd van 15 jaar.","historic":"memorial","memorial":"stolperstein","memorial:addr":"Stationsweg 23, Zutphen","name":"Eva Edith Heimans","network":"Stolpersteine Zutphen","person:date_of_birth":"1928-12-01","person:date_of_death":"1944-10-06","proposed:historic":"memorial","website":"https://stolpersteinezutphen.nl/persoon/eva-edith-heimans"}},{"type":"node","id":4591214738,"lat":52.1450953,"lon":6.1967963,"tags":{"description":"20 July 1896 te Uden Nederland † 15 December 1944 te Dachau. Benjamin woonde Stationsweg 23 en bereikte de leeftijd van 48 jaar. Beroep: Handelsreiziger","historic":"memorial","memorial":"stolperstein","memorial:addr":"Stationsweg 23, Zutphen","name":"Benjamin Heimans","network":"Stolpersteine Zutphen","person:date_of_birth":"1896-07-20","person:date_of_death":"1944-12-15","proposed:historic":"memorial","website":"https://stolpersteinezutphen.nl/persoon/benjamin-heimans"}},{"type":"node","id":4591214739,"lat":52.1450964,"lon":6.1967837,"tags":{"description":"6 May 1892 te Zutphen Nederland † 6 October 1944 te Auschwitz. Mientje woonde Stationsweg 23 en bereikte de leeftijd van 52 jaar.","historic":"memorial","memorial":"stolperstein","memorial:addr":"Stationsweg 23, Zutphen","name":"Mientje Heimans-Philips","network":"Stolpersteine Zutphen","person:date_of_birth":"1892-05-06","person:date_of_death":"1944-10-06","proposed:historic":"memorial","website":"https://stolpersteinezutphen.nl/persoon/mientje-heimans-philips"}},{"type":"node","id":4593347772,"lat":52.1518268,"lon":6.2111675,"tags":{"description":"16 November 1921 te Winterswijk † 13 November 1942 te Auschwitz. Ida woonde Van der Capellenlaan 18 en bereikte de leeftijd van 20 jaar. Beroep: Dienstbode","historic":"memorial","memorial":"stolperstein","memorial:addr":"Van der Capellenlaan 18, Zutphen","name":"Ida Menco","network":"Stolpersteine Zutphen","person:date_of_birth":"1921-11-16","person:date_of_death":"1942-11-19","proposed:historic":"memorial","website":"https://stolpersteinezutphen.nl/persoon/ida-menco"}},{"type":"node","id":4594118725,"lat":52.1485979,"lon":6.2067944,"tags":{"description":"18 March 1940 te Zutphen Nederland † 13 March 1943 te Sobibor. Michael woonde Weg naar Laren 17 en bereikte de leeftijd van 2 jaar.","historic":"memorial","memorial":"stolperstein","memorial:addr":"Weg naar Laren 17, Zutphen","name":"Michael Elzas","network":"Stolpersteine Zutphen","note":"postie dient verbetert te worden","person:date_of_birth":"1940-03-18","person:date_of_death":"1943-03-13","proposed:historic":"memorial","website":"https://stolpersteinezutphen.nl/persoon/michael-elzas"}},{"type":"node","id":4594118726,"lat":52.1486093,"lon":6.2067753,"tags":{"description":"6 November 1937 te Zutphen Nederland † 13 March 1943 te Sobibor. Ruben woonde Weg naar Laren 17 en bereikte de leeftijd van 5 jaar.","historic":"memorial","memorial":"stolperstein","memorial:addr":"Weg naar Laren 17, Zutphen","name":"Ruben Elzas","network":"Stolpersteine Zutphen","note":"postie dient verbetert te worden","person:date_of_birth":"1937-11-06","person:date_of_death":"1943-03-13","proposed:historic":"memorial","website":"https://stolpersteinezutphen.nl/persoon/ruben-elzas"}},{"type":"node","id":4594118727,"lat":52.1486204,"lon":6.2067597,"tags":{"description":"3 January 1907 te Stolzenau Duitsland † 13 March 1943 te Sobibor. Eva woonde Weg naar Laren 17 en bereikte de leeftijd van 36 jaar.","historic":"memorial","memorial":"stolperstein","memorial:addr":"Weg naar Laren 17, Zutphen","name":"Eva Elzas-Spanier","network":"Stolpersteine Zutphen","note":"postie dient verbetert te worden","person:date_of_birth":"1907-01-03","person:date_of_death":"1943-03-13","proposed:historic":"memorial","website":"https://stolpersteinezutphen.nl/persoon/eva-elzas-spanier"}},{"type":"node","id":4594118728,"lat":52.1486344,"lon":6.2067455,"tags":{"description":"10 June 1906 te Zutphen Nederland † 13 March 1943 te Sobibor. Herbert Hans woonde Weg naar Laren 17 en bereikte de leeftijd van 36 jaar. Beroep: Koopman","historic":"memorial","memorial":"stolperstein","memorial:addr":"Weg naar Laren 17, Zutphen","name":"Herbert Hans Elzas","network":"Stolpersteine Zutphen","note":"postie dient verbetert te worden","person:date_of_birth":"1906-06-10","person:date_of_death":"1943-03-13","proposed:historic":"memorial","website":"https://stolpersteinezutphen.nl/persoon/herbert-hans-elzas"}},{"type":"node","id":9789437363,"lat":52.1653541,"lon":6.1441358,"tags":{"historic":"memorial"}},{"type":"node","id":12085428890,"lat":52.1460392,"lon":6.2000773,"tags":{"historic":"cannon"}},{"type":"node","id":13479322797,"lat":52.1446594,"lon":6.1942398,"tags":{"historic":"memorial","memorial":"plaque"}},{"type":"node","id":13550859226,"lat":52.1452434,"lon":6.1887283,"tags":{"historic":"cannon"}},{"type":"way","id":50398761,"nodes":[2655990582,2655990578,2655990574,640272566,13108474193,640272569,13108474195,13108474194,2655990550,2655990569,640272571,640272564,13108474196,2655990582],"tags":{"building":"yes","historic":"ruins","name":"Kruittoren","ref:bag":"0301100000010022","source":"BAG","source:date":"2014-01-22","start_date":"1450"}},{"type":"way","id":103823551,"nodes":[1198574659,1198574657,1198574664,1198574670,1198574652,1198574662,1198574666,1198574696,1198574659],"tags":{"barrier":"sally_port","building":"yes","historic":"city_gate","layer":"1","name":"Spanjaardspoort","wikidata":"Q17451824","wikipedia":"nl:Spanjaardspoort"}},{"type":"way","id":269591422,"nodes":[2747729114,2747729110,2747729174,2747703247,2747729114],"tags":{"addr:city":"Zutphen","addr:housenumber":"16","addr:postcode":"7205CJ","addr:street":"Vliegendijk","building":"industrial","building:use":"house","heritage":"8","heritage:operator":"Gemeente Zutphen","historic":"building","name":"De IJsselstroom","ref:bag":"0301100000018331","source":"BAG","source:date":"2014-03-24","start_date":"1911","website":"https://www.deijsselstroom.info"}},{"type":"way","id":287942804,"nodes":[2914984917,2914984868,2914984812,2914984769,2914981991,2914984725,2914984717,2914984752,2914984730,2914984810,2914984846,2914984935,2914985398,2914985310,2914984991,2914984917],"tags":{"amenity":"place_of_worship","building":"church","denomination":"protestant","heritage":"2","heritage:operator":"rce","historic":"church","name":"Dorpskerk Voorst","old_name":"Heilige Drievuldigheid","ref:bag":"0285100000107390","religion":"christian","source":"BAG","source:date":"2014-06-13","start_date":"1480"}},{"type":"way","id":287943574,"nodes":[2914987215,2914987358,2914987316,2914987157,2914987215],"tags":{"building":"house","heritage":"8","heritage:operator":"Gemeente Voorst","historic":"yes","ref:bag":"0285100000100048","source":"BAG","source:date":"2014-06-13","start_date":"1700"}},{"type":"node","id":2747703247,"lat":52.1465587,"lon":6.1830288},{"type":"node","id":2747729110,"lat":52.1463047,"lon":6.1829839},{"type":"node","id":2747729114,"lat":52.1463171,"lon":6.1830981},{"type":"node","id":2747729174,"lat":52.1465463,"lon":6.1829146},{"type":"node","id":2914987157,"lat":52.171618,"lon":6.1439912},{"type":"node","id":2914987215,"lat":52.1716547,"lon":6.1438734},{"type":"node","id":2914987316,"lat":52.1717503,"lon":6.1441001},{"type":"node","id":2914987358,"lat":52.171787,"lon":6.1439824},{"type":"node","id":2914981991,"lat":52.17085,"lon":6.1475479},{"type":"node","id":2914984717,"lat":52.1708727,"lon":6.1475132},{"type":"node","id":2914984725,"lat":52.1708761,"lon":6.1475323},{"type":"node","id":2914984730,"lat":52.1708777,"lon":6.1474271},{"type":"node","id":2914984752,"lat":52.1708934,"lon":6.1475004},{"type":"node","id":2914984769,"lat":52.1709058,"lon":6.147812},{"type":"node","id":2914984810,"lat":52.1709408,"lon":6.1473931},{"type":"node","id":2914984812,"lat":52.170941,"lon":6.1477921},{"type":"node","id":2914984846,"lat":52.1709609,"lon":6.1474884},{"type":"node","id":2914984868,"lat":52.1709741,"lon":6.1479477},{"type":"node","id":2914984917,"lat":52.1710081,"lon":6.1479746},{"type":"node","id":2914984935,"lat":52.1710186,"lon":6.1474558},{"type":"node","id":2914984991,"lat":52.1710469,"lon":6.1479533},{"type":"node","id":2914985310,"lat":52.1710607,"lon":6.1479053},{"type":"node","id":2914985398,"lat":52.1711085,"lon":6.1478783},{"type":"node","id":640272564,"lat":52.145508,"lon":6.1967291},{"type":"node","id":640272566,"lat":52.1454403,"lon":6.1967773},{"type":"node","id":640272569,"lat":52.1454115,"lon":6.1966698},{"type":"node","id":640272571,"lat":52.1454792,"lon":6.1966216},{"type":"node","id":1198574652,"lat":52.1451952,"lon":6.199244},{"type":"node","id":1198574657,"lat":52.145398,"lon":6.1992379},{"type":"node","id":1198574659,"lat":52.1452484,"lon":6.1991302},{"type":"node","id":1198574662,"lat":52.1453114,"lon":6.1993269},{"type":"node","id":1198574664,"lat":52.1453325,"lon":6.1993591},{"type":"node","id":1198574666,"lat":52.1453646,"lon":6.1992366},{"type":"node","id":1198574670,"lat":52.1451853,"lon":6.1992564},{"type":"node","id":1198574696,"lat":52.1452385,"lon":6.1991476},{"type":"node","id":2655990550,"lat":52.1454242,"lon":6.1966383},{"type":"node","id":2655990569,"lat":52.1454359,"lon":6.1966525},{"type":"node","id":2655990574,"lat":52.1454431,"lon":6.1967754},{"type":"node","id":2655990578,"lat":52.145443,"lon":6.1967807},{"type":"node","id":2655990582,"lat":52.1454643,"lon":6.196781},{"type":"node","id":13108474193,"lat":52.1454301,"lon":6.1967392},{"type":"node","id":13108474194,"lat":52.1454118,"lon":6.1966648},{"type":"node","id":13108474195,"lat":52.145414,"lon":6.196668},{"type":"node","id":13108474196,"lat":52.1454644,"lon":6.1967602}]}}
