{"query_name":"04-places-heritage","query_signature":"578198d42790e5af19fb2a1c86720177241224e9","tile_path":"231","payload":{"version":0.6,"generator":"Overpass API 0.7.62.11 87bfad18","osm3s":{"timestamp_osm_base":"2026-07-14T22:18:02Z","copyright":"The data included in this document is from www.openstreetmap.org. The data is made available under ODbL."},"elements":[{"type":"node","id":5949217743,"lat":52.2855576,"lon":6.4156121,"tags":{"historic":"memorial","memorial":"war_memorial","name":"Oorlogsmonument"}},{"type":"node","id":5949217744,"lat":52.2855882,"lon":6.4153411,"tags":{"description":"Gedenkmonument en fontein","historic":"memorial","memorial":"sculpture"}},{"type":"node","id":6885933130,"lat":52.2838838,"lon":6.4214839,"tags":{"historic":"memorial","memorial":"stone","name":"Vader des Vaderlands"}},{"type":"node","id":6886046776,"lat":52.2838937,"lon":6.4216345,"tags":{"description":"Zwerfsteen, ontdekt kort voor WO1 Twenhaarsveld. 15 feb 1928 > Dikkesteenweg/Rijssensestraat. 16 nov 1995 > Dorpsstraat. In 2012 > Stationsstraat tijdelijke plek. In 2019 Stationsstraat huidige plek. (O'tR 2025)","geological":"glacial_erratic","historic":"memorial","memorial":"stone","name":"Dikke Steen","natural":"stone"}},{"type":"node","id":11837508042,"lat":52.289052,"lon":6.4223287,"tags":{"amenity":"bench","backrest":"yes","historic":"memorial","inscription":"20 SEPT 1940 AANGEBODEN TER GELEGENHEID VAN HET 25-JARIG BESTAAN VAN DE VEREEN.(IGING) HOLTENS BELANG VVV","material":"brick","memorial":"bench","seats":"4"}},{"type":"node","id":12762593876,"lat":52.2995428,"lon":6.4282686,"tags":{"addr:city":"Holten","addr:street":"Eekhoornweg","historic":"tomb","inscription":"G.17848 Sergeant H. G. Sabean, Carleton and York Regiment, 15th April 1945, Age 27. Too dearly loved to ever be forgotten. Loving wife Josephine","memorial:conflict":"WW2","name":"H. G. Sabean","note":"Eerst gekarteerde oorlogsgraf alhier, 17 april 2025","tomb":"war_grave"}},{"type":"node","id":12762593877,"lat":52.2995551,"lon":6.4282668,"tags":{"addr:city":"Holten","addr:street":"Eekhoornweg","fixme":"Wie pakt de handschoen op voor het karteren van dit graf en alle volgende graven?","historic":"tomb","memorial:conflict":"WW2","tomb":"war_grave"}},{"type":"node","id":13243044119,"lat":52.298838,"lon":6.4294503,"tags":{"alt_name":"Crossroads Vector","artist_name":"Daniel Libeskind","artwork_type":"sculpture","comment":"Plek bij benadering","description":"Het herinnert aan de opmars van de Canadese bevrijders. Overigens, tegelijk ging ook de Canadian Trail Overijssel officieel van start – drie langeafstandsroutes die samen het bevrijdingsverhaal van de provincie vertellen.","historic":"memorial","memorial":"sculpture","name":"Vector of Memory","note":"Herinneringsmonument en kunstwerk tegelijk.","start_date":"2025-10","tourism":"artwork"}},{"type":"way","id":201985559,"nodes":[2119799349,2119799350,2119799357,2119799356,2119799349],"tags":{"historic":"memorial","inscription":"THEIR NAME LIVETH FOR EVERMORE","material":"stone","memorial":"war_memorial","memorial:conflict":"WW2","surface":"stone"}},{"type":"way","id":201985560,"nodes":[2119799347,13118926960,13118926961,13118926962,13118926963,13118926964,2119799347],"tags":{"historic":"memorial","material":"stone","memorial":"cross","memorial:conflict":"WW2","surface":"stone"}},{"type":"node","id":2119799347,"lat":52.2994254,"lon":6.4275215},{"type":"node","id":2119799349,"lat":52.2994501,"lon":6.4287945},{"type":"node","id":2119799350,"lat":52.2994521,"lon":6.4288629},{"type":"node","id":2119799356,"lat":52.2995178,"lon":6.4287892},{"type":"node","id":2119799357,"lat":52.2995198,"lon":6.4288576},{"type":"node","id":13118926960,"lat":52.2994378,"lon":6.4275347},{"type":"node","id":13118926961,"lat":52.2994526,"lon":6.4275332},{"type":"node","id":13118926962,"lat":52.2994644,"lon":6.4275172},{"type":"node","id":13118926963,"lat":52.2994633,"lon":6.4274694},{"type":"node","id":13118926964,"lat":52.299424,"lon":6.427473}]}}
