{"query_name":"04-places-heritage","query_signature":"546e1346979708dc09aac07039010eac719e0ef3","tile_path":"24","payload":{"version":0.6,"generator":"Overpass API 0.7.62.11 87bfad18","osm3s":{"timestamp_osm_base":"2026-07-14T21:26:12Z","copyright":"The data included in this document is from www.openstreetmap.org. The data is made available under ODbL."},"elements":[{"type":"node","id":3765878447,"lat":51.8602446,"lon":6.4897705,"tags":{"historic":"memorial"}},{"type":"node","id":3779564216,"lat":51.8597589,"lon":6.5041227,"tags":{"historic":"memorial","name":"Kriegerehrenmal"}},{"type":"node","id":5870775551,"lat":51.8633763,"lon":6.4880428,"tags":{"historic":"memorial","memorial":"stolperstein","note":"2 Stolpersteine","website":"https://www.online-begraafplaatsen.nl/zerken.asp?command=showzerken&bgp=2777"}},{"type":"node","id":5871066083,"lat":51.8632654,"lon":6.4880134,"tags":{"historic":"memorial","memorial":"stolperstein","note":"3 Stolpersteine","website":"https://www.online-begraafplaatsen.nl/zerken.asp?command=showzerken&bgp=2777"}},{"type":"node","id":5871066084,"lat":51.8618961,"lon":6.4882841,"tags":{"historic":"memorial","memorial":"stolperstein","note":"3 Stolpersteine","website":"https://www.online-begraafplaatsen.nl/zerken.asp?command=showzerken&bgp=2777"}},{"type":"node","id":13136247058,"lat":51.8598188,"lon":6.4913911,"tags":{"description":"Op deze plek heeft koningin Beatrix in 1984 één voet in duitsland gezet. Niet met beide voeten want dan is het een staatsbezoek.","historic":"memorial","memorial":"plaque","name":"Beatrix 1984","note":"De grens klopt hier niet helemaal, want die loopt eigenlijk over de stoeprand.","website":"https://www.gld.nl/nieuws/8300670/waarom-beatrix-in-1984-maar-een-voet-op-duitse-bodem-zette"}}]}}
