{"query_name":"04-places-heritage","query_signature":"05c6c7daed7c51ec069f92f7d0d3ee72b4da21c4","tile_path":"25","payload":{"version":0.6,"generator":"Overpass API 0.7.62.11 87bfad18","osm3s":{"timestamp_osm_base":"2026-07-14T21:26:12Z","copyright":"The data included in this document is from www.openstreetmap.org. The data is made available under ODbL."},"elements":[{"type":"node","id":295352816,"lat":51.8369965,"lon":6.6110537,"tags":{"description":"Nachbildung eines preußischen Meilenstein","historic":"memorial","image":"File:Rathaus Bocholt.JPG","inscription":"Die vier Schrifttafeln im Sockel beinhalten Inschriften über Partnerstädte, Ehrenbürger und geografische Daten.","material":"stone","memorial":"obelisk","name":"Obelisk","name:en":"Obelisk","name:es":"Obelisco","name:fr":"Obélisque","name:it":"Obelisco","wheelchair":"yes"}},{"type":"node","id":295898694,"lat":51.8366364,"lon":6.6113856,"tags":{"historic":"memorial","memorial":"yes","name":"Denkmal zum Fall der Berliner Mauer","website":"https://www.bocholt.de/bocholterleben/sehenswuerdigkeiten/denkmalberlinermauer/","wheelchair":"yes"}},{"type":"node","id":4360418322,"lat":51.8600687,"lon":6.6050147,"tags":{"heritage":"no","historic":"wayside_cross","image":"https://commons.wikimedia.org/wiki/File:Hemden,Wegekreuz(Finkenberg)_--_2020_--.jpg"}},{"type":"node","id":4587411857,"lat":51.8365593,"lon":6.6145652,"tags":{"artist_name":"Ellen Bernkopf","historic":"memorial","inscription":"Die Mahnung ist: Nicht zu vergessen, was der Mensch dem Menschen zufügen kann.","memorial":"statue","name":"Die Trauernde","start_date":"1970"}},{"type":"node","id":5575478216,"lat":51.8570355,"lon":6.5828135,"tags":{"historic":"memorial","memorial":"statue","name":"Ehrenmal Sankt Georg"}},{"type":"node","id":5775910973,"lat":51.8535958,"lon":6.6259689,"tags":{"historic":"wayside_shrine","material":"wood","name":"Wegekreuz","religion":"christian"}},{"type":"node","id":5791787832,"lat":51.8345867,"lon":6.6132934,"tags":{"historic":"memorial","memorial":"statue","name":"Josef Statue"}},{"type":"node","id":5794444839,"lat":51.8530268,"lon":6.5711492,"tags":{"historic":"wayside_shrine","religion":"christian"}},{"type":"node","id":5817365791,"lat":51.8427115,"lon":6.5780237,"tags":{"historic":"wayside_shrine","image":"https://upload.wikimedia.org/wikipedia/commons/c/c3/Bocholt%2C_Bildstock_%28Nevelkamp%29.jpg","mapillary":"4116313528413955","religion":"christian"}},{"type":"node","id":5820164937,"lat":51.8381544,"lon":6.616137,"tags":{"artist_name":"Gunter Demnig","historic":"memorial","image":"File:Stolperstein Bocholt Königstraße 9 Marianne Roth.jpg","inscription":"Hier wohnte, Marianne Roth, Jg. 1868, deportiert 1941,Theresienstadt , ermordet 1942","material":"brass","material:de":"Messing","memorial":"stolperstein","memorial:addr":"Königstraße 9","name":"Marianne Roth","network":"Stolpersteine Bocholt","object:city":"Bocholt","object:country":"DE","object:housenumber":"9","object:postcode":"46397","object:street":"Königstraße","person:date_of_birth":"1868","person:date_of_death":"1942","start_date":"2008-01-28"}},{"type":"node","id":5820164938,"lat":51.8381546,"lon":6.6161316,"tags":{"artist_name":"Gunter Demnig","historic":"memorial","image":"File:Stolperstein Bocholt Königstraße 9 Manfred Zytnik.jpg","inscription":"Hier wohnte,Manfred Zytnik, Jg. 1933, deportiert 1941, ermordet in Riga","material":"brass","material:de":"Messing","memorial":"stolperstein","memorial:addr":"Königstraße 9","name":"Manfred Zytnik","network":"Stolpersteine Bocholt","object:city":"Bocholt","object:country":"DE","object:housenumber":"9","object:postcode":"46397","object:street":"Königstraße","person:date_of_birth":"1933","start_date":"2008-01-28"}},{"type":"node","id":5820164939,"lat":51.8381545,"lon":6.6161278,"tags":{"artist_name":"Gunter Demnig","historic":"memorial","image":"File:Stolperstein Bocholt Königstraße 9 Edith Zytnik.jpg","inscription":"Hier wohnte, Edith Zytnik, Jg. 1932, deportiert 1941, ermordet in Riga","material":"brass","material:de":"Messing","memorial":"stolperstein","memorial:addr":"Königstraße 9","name":"Edith Zytnik","network":"Stolpersteine Bocholt","object:city":"Bocholt","object:country":"DE","object:housenumber":"9","object:postcode":"46397","object:street":"Königstraße","person:date_of_birth":"1932","start_date":"2008-01-28"}},{"type":"node","id":5820164940,"lat":51.8381573,"lon":6.6161274,"tags":{"artist_name":"Gunter Demnig","historic":"memorial","image":"File:Stolperstein Bocholt Königstraße 9 Rachel Blumenthal.jpg","inscription":"Hier wohnte, Rachel Blumenthal geb. Roth verw. Zytnik, Jg. 1901, deportiert 1941 Riga, ermordet 1944 in Stutthof","material":"brass","material:de":"Messing","memorial":"stolperstein","memorial:addr":"Königstraße 9","name":"Rachel Blumenthal geb. Roth verw. Zytnik","network":"Stolpersteine Bocholt","object:city":"Bocholt","object:country":"DE","object:housenumber":"9","object:postcode":"46397","object:street":"Königstraße","person:date_of_birth":"1901","person:date_of_death":"1944","start_date":"2008-01-28"}},{"type":"node","id":5820164941,"lat":51.838157,"lon":6.6161317,"tags":{"artist_name":"Gunter Demnig","historic":"memorial","image":"File:Stolperstein Bocholt Königstraße 9 Adolf Blumenthal.jpg","inscription":"Hier wohnte, Adolf Blumenthal, Jg. 1887, deportiert 1941, ermordet in Riga","material":"brass","material:de":"Messing","memorial":"stolperstein","memorial:addr":"Königstraße 9","name":"Adolf Blumenthal","network":"Stolpersteine Bocholt","object:city":"Bocholt","object:country":"DE","object:housenumber":"9","object:postcode":"46397","object:street":"Königstraße","person:date_of_birth":"1887","start_date":"2008-01-28"}},{"type":"node","id":5833123291,"lat":51.8395632,"lon":6.6123962,"tags":{"historic":"memorial","memorial":"plaque","name":"ehem. Synagoge"}},{"type":"node","id":5834903773,"lat":51.8555607,"lon":6.6201934,"tags":{"historic":"memorial","memorial":"war_memorial","name":"Kriegerehrenmal"}},{"type":"node","id":5834903777,"lat":51.8392745,"lon":6.5754837,"tags":{"historic":"memorial","name":"Kriegerehrenmal"}},{"type":"node","id":5834903780,"lat":51.8628742,"lon":6.5624535,"tags":{"historic":"memorial","name":"Kriegerehrenmal"}},{"type":"node","id":5835895639,"lat":51.8397548,"lon":6.6128849,"tags":{"historic":"memorial","memorial":"statue","source":"https://www.flickr.com/photos/125134384@N03/42229008574/in/album-72157692458024510/"}},{"type":"node","id":6213520522,"lat":51.845873,"lon":6.6158151,"tags":{"artist_name":"Gunter Demnig","historic":"memorial","image":"File:Stolperstein Bocholt Adenauerallee 39 Martha Silberschmidt.jpg","material":"brass","material:de":"Messing","memorial":"stolperstein","memorial:addr":"Adenauerallee 39","memorial:text":"Hier wohnte Martha Silberschmidt geb. Lehmann Jg. 1883 deportiert 1942 Theresienstadt ermordet 1943 in Treblinka","name":"Martha Silberschmidt geb. Lehmann","object:city":"Bocholt","object:country":"DE","object:housenumber":"39","object:postcode":"46399","object:street":"Adenauerallee","start_date":"2007-02-07"}},{"type":"node","id":6214906630,"lat":51.8442963,"lon":6.6147177,"tags":{"artist_name":"Gunter Demnig","historic":"memorial","image":"File:Stolperstein Bocholt Hemdener Weg 11 Franz Löwenstein.jpg","material":"brass","material:de":"Messing","memorial":"stolperstein","memorial:addr":"Hemdener Weg 11","memorial:text":"Hier wohnte, Franz Löwenstein, Jg. 1938, deportiert 1943, ermordet 1943 in, Sobibor","name":"Franz Löwenstein","object:city":"Bocholt","object:country":"DE","object:housenumber":"11","object:postcode":"46399","object:street":"Hemdener Weg","start_date":"2008-01-28"}},{"type":"node","id":6218453320,"lat":51.8442984,"lon":6.6147155,"tags":{"artist_name":"Gunter Demnig","historic":"memorial","image":"File:Stolperstein Bocholt Hemdener Weg 11 Fritz Löwenstein.jpg","material":"brass","material:de":"Messing","memorial":"stolperstein","memorial:addr":"Hemdener Weg 11","memorial:text":"Hier wohnte, Fritz Löwenstein, Jg. 1898, deportiert, ermordet 1944 in, Warschau","name":"Fritz Löwenstein","object:city":"Bocholt","object:country":"DE","object:housenumber":"11","object:postcode":"46399","object:street":"Hemdener Weg","person:date_of_birth":"1898","person:date_of_death":"1944","start_date":"2008-01-28"}},{"type":"node","id":6218453321,"lat":51.8442946,"lon":6.6147198,"tags":{"artist_name":"Gunter Demnig","historic":"memorial","image":"File:Stolperstein Bocholt Hemdener Weg 11 Arnold Löwenstein.jpg","material":"brass","material:de":"Messing","memorial":"stolperstein","memorial:addr":"Hemdener Weg 11","memorial:text":"Hier wohnte Arnold Löwenstein Jg. 1935 deportiert 1943 ermordet 1943 in Sobibor","name":"Arnold Löwenstein","object:city":"Bocholt","object:country":"DE","object:housenumber":"11","object:postcode":"46399","object:street":"Hemdener Weg","person:date_of_birth":"1935","person:date_of_death":"1943","start_date":"2008-01-28"}},{"type":"node","id":6218453322,"lat":51.8442942,"lon":6.6147148,"tags":{"artist_name":"Gunter Demnig","historic":"memorial","image":"File:Stolperstein Bocholt Hemdener Weg 11 Julius Löwenstein.jpg","material":"brass","material:de":"Messing","memorial":"stolperstein","memorial:addr":"Hemdener Weg 11","memorial:text":"Hier wohnte, Julius Löwenstein, Jg. 1894, deportiert 1943, ermordet 1943 in, Sobibor","name":"Julius Löwenstein","object:city":"Bocholt","object:country":"DE","object:housenumber":"11","object:postcode":"46399","object:street":"Hemdener Weg","person:date_of_birth":"1894","person:date_of_death":"1943","start_date":"2008-01-28"}},{"type":"node","id":6218453323,"lat":51.8442959,"lon":6.6147134,"tags":{"artist_name":"Gunter Demnig","historic":"memorial","image":"File:Stolperstein Bocholt Hemdener Weg 11 Anna Löwenstein.jpg","material":"brass","material:de":"Messing","memorial":"stolperstein","memorial:addr":"Hemdener Weg 11","memorial:text":"Hier wohnte, Anna Löwenstein, geb. Teutsch, Jg. 1901, deportiert 1943, ermordet 1943 in, Sobibor","name":"Anna Löwenstein, geb. Teutsch","object:city":"Bocholt","object:country":"DE","object:housenumber":"11","object:postcode":"46399","object:street":"Hemdener Weg","person:date_of_birth":"1901","person:date_of_death":"1943","start_date":"2008-01-28"}},{"type":"node","id":6218453324,"lat":51.8442975,"lon":6.6147124,"tags":{"artist_name":"Gunter Demnig","historic":"memorial","image":"File:Stolperstein Bocholt Hemdener Weg 11 Meta Weiss.jpg","material":"brass","material:de":"Messing","memorial":"stolperstein","memorial:addr":"Hemdener Weg 11","memorial:text":"Hier wohnte, Meta Weiss, geb. Löwenstein, Jg. 1892, deportiert 1943, Auschwitz, ermordet","name":"Meta Weiss, geb. Löwenstein","object:city":"Bocholt","object:country":"DE","object:housenumber":"11","object:postcode":"46399","object:street":"Hemdener Weg","person:date_of_birth":"1892","start_date":"2008-01-28"}},{"type":"node","id":6218453325,"lat":51.8442954,"lon":6.6147109,"tags":{"artist_name":"Gunter Demnig","historic":"memorial","image":"File:Stolperstein Bocholt Hemdener Weg 11 Wilhelmine Löwenstein.jpg","material":"brass","material:de":"Messing","memorial":"stolperstein","memorial:addr":"Hemdener Weg 11","memorial:text":"Hier wohnte, Wilhelmine Löwenstein, geb. Geisel, Jg. 1868, Flucht 1939 Holland, tot 1943","name":"Wilhelmine Löwenstein, geb. Geisel","object:city":"Bocholt","object:country":"DE","object:housenumber":"11","object:postcode":"46399","object:street":"Hemdener Weg","person:date_of_birth":"1868","person:date_of_death":"1943","start_date":"2008-01-28"}},{"type":"node","id":6219090496,"lat":51.8413614,"lon":6.6174272,"tags":{"artist_name":"Gunter Demnig","historic":"memorial","image":"File:Stolperstein Bocholt Weberstraße 23 Max Hochheimer.jpg","material":"brass","material:de":"Messing","memorial":"stolperstein","memorial:addr":"Weberstraße 23","memorial:text":"Hier wohnte, Max Hochheimer, Jg. 1882, deportiert 1941, Ghetto Riga, ermordet 1944, KZ Buchenwald","name":"Max Hochheimer","object:city":"Bocholt","object:country":"DE","object:housenumber":"23","object:postcode":"46397","object:street":"Weberstraße","person:date_of_birth":"1882","person:date_of_death":"1945","start_date":"2007-02-07"}},{"type":"node","id":6219090497,"lat":51.8413625,"lon":6.6174271,"tags":{"artist_name":"Gunter Demnig","historic":"memorial","image":"File:Stolperstein Bocholt Weberstraße 23 Paul Hochheimer.jpg","material":"brass","material:de":"Messing","memorial":"stolperstein","memorial:addr":"Weberstraße 23","memorial:text":"Hier wohnte, Paul Hochheimer, Jg. 1922, deportiert 1941, Ghetto Riga, KZ Buchenwald, tot 1945, nach Befreiung","name":"Paul Hochheimer","object:city":"Bocholt","object:country":"DE","object:housenumber":"23","object:postcode":"46397","object:street":"Weberstraße","person:date_of_birth":"1922","person:date_of_death":"1945","start_date":"2007-02-07"}},{"type":"node","id":6219256997,"lat":51.8402434,"lon":6.6171413,"tags":{"artist_name":"Gunter Demnig","historic":"memorial","image":"File:Stolperstein Bocholt Niederbruch 20 Hilde Metzger.jpg","material":"brass","material:de":"Messing","memorial":"stolperstein","memorial:addr":"Niederbruch 20","memorial:text":"Hier wohnte, Hilde Metzger, Jg. 1909, deportiert 1941, ermordet in, Riga","name":"Hilde Metzger","object:city":"Bocholt","object:country":"DE","object:housenumber":"20","object:postcode":"46397","object:street":"Niederbruch","person:date_of_birth":"1909","start_date":"2009-11-24"}},{"type":"node","id":6219256998,"lat":51.8402426,"lon":6.617142,"tags":{"artist_name":"Gunter Demnig","historic":"memorial","image":"File:Stolperstein Bocholt Niederbruch 20 Isidor Metzger.jpg","material":"brass","material:de":"Messing","memorial":"stolperstein","memorial:addr":"Niederbruch 20","memorial:text":"Hier wohnte, Isidor Metzger, Jg. 1880, deportiert 1941, ermordet in, Riga","name":"Isidor Metzger","object:city":"Bocholt","object:country":"DE","object:housenumber":"20","object:postcode":"46397","object:street":"Niederbruch","person:date_of_birth":"1880","start_date":"2009-11-24"}},{"type":"node","id":6219256999,"lat":51.8402421,"lon":6.6171433,"tags":{"artist_name":"Gunter Demnig","historic":"memorial","image":"File:Stolperstein Bocholt Niederbruch 20 Selma Metzger.jpg","material":"brass","material:de":"Messing","memorial":"stolperstein","memorial:addr":"Niederbruch 20","memorial:text":"Hier wohnte, Selma Metzger, Jg. 1879, deportiert 1941, ermordet in, Riga","name":"Selma Metzger","object:city":"Bocholt","object:country":"DE","object:housenumber":"20","object:postcode":"46397","object:street":"Niederbruch","person:date_of_birth":"1879","start_date":"2009-11-24"}},{"type":"node","id":6219257000,"lat":51.8402412,"lon":6.6171421,"tags":{"artist_name":"Gunter Demnig","historic":"memorial","image":"File:Stolperstein Bocholt Niederbruch 20 Siemon Blumenthal.jpg","material":"brass","material:de":"Messing","memorial":"stolperstein","memorial:addr":"Niederbruch 20","memorial:text":"Hier wohnte, Simon Blumenthal, Jg. 1875, deportiert 1941, ermordet in, Riga","name":"Simon Blumenthal","object:city":"Bocholt","object:country":"DE","object:housenumber":"20","object:postcode":"46397","object:street":"Niederbruch","person:date_of_birth":"1875","start_date":"2009-11-24"}},{"type":"node","id":6219277272,"lat":51.8394199,"lon":6.6121073,"tags":{"artist_name":"Gunter Demnig","historic":"memorial","image":"File:Stolperstein Bocholt Nobelstraße 28 Regina Seif.jpg","material":"brass","material:de":"Messing","memorial":"stolperstein","memorial:addr":"Nobelstraße 28","memorial:text":"Hier wohnte, Regina Seif, geb. Simoni, Jg. 1876, deportiert 1942, ermordet 1942 in, Riga","name":"Regina Seif geb. Simoni","object:city":"Bocholt","object:country":"DE","object:housenumber":"9","object:postcode":"46399","object:street":"Nobelstraße","person:date_of_birth":"1876","person:date_of_death":"1942","start_date":"2008-01-28"}},{"type":"node","id":6219277273,"lat":51.839421,"lon":6.6121072,"tags":{"artist_name":"Gunter Demnig","historic":"memorial","image":"File:Stolperstein Bocholt Nobelstraße 28 Salomon Seif.jpg","material":"brass","material:de":"Messing","memorial":"stolperstein","memorial:addr":"Nobelstraße 28","memorial:text":"Hier wohnte, Salomon Seif, Jg. 1884, deportiert 1942, ermordet 1942 in, Riga","name":"Salomon Seif","object:city":"Bocholt","object:country":"DE","object:housenumber":"9","object:postcode":"46399","object:street":"Nobelstraße","person:date_of_birth":"1884","person:date_of_death":"1942","start_date":"2008-01-28"}},{"type":"node","id":6219552394,"lat":51.8399197,"lon":6.606773,"tags":{"artist_name":"Gunter Demnig","historic":"memorial","image":"File:Stolperstein Bocholt Ludgerusstraße 4 Sophia Mühlfelder.jpg","material":"brass","material:de":"Messing","memorial":"stolperstein","memorial:addr":"Ludgerusstraße 4","memorial:text":"Hier wohnte, Sophia Mühlfelder, geb. Clefffmann, Jg. 1875, deportiert 1942, Theresienstadt, Treblinka, Maly Trostinec, ermordet 1942","name":"Sophia Mühlfelder geb. Clefffmann","object:city":"Bocholt","object:country":"DE","object:housenumber":"4","object:postcode":"46399","object:street":"Ludgerusstraße","person:date_of_birth":"1875","person:date_of_death":"1942","start_date":"2007-02-07"}},{"type":"node","id":6219552395,"lat":51.839921,"lon":6.6067727,"tags":{"artist_name":"Gunter Demnig","historic":"memorial","image":"File:Stolperstein Bocholt Ludgerusstraße 4 Emanuel Mühlfelder.jpg","material":"brass","material:de":"Messing","memorial":"stolperstein","memorial:addr":"Ludgerusstraße 4","memorial:text":"Hier wohnte, Emanuel Mühlfelder, Jg. 1875, deportiert 1942, Theresienstadt, Treblinka, Maly Trostinec, ermordet 1942","name":"Emanuel Mühlfelder","object:city":"Bocholt","object:country":"DE","object:housenumber":"4","object:postcode":"46399","object:street":"Ludgerusstraße","person:date_of_birth":"1875","person:date_of_death":"1942","start_date":"2007-02-07"}},{"type":"node","id":6219552396,"lat":51.8399217,"lon":6.6067754,"tags":{"artist_name":"Gunter Demnig","historic":"memorial","image":"File:Stolperstein Bocholt Ludgerusstraße 4 Hermann Cohen.jpg","material":"brass","material:de":"Messing","memorial":"stolperstein","memorial:addr":"Ludgerusstraße 4","memorial:text":"Hier wohnte, Hermann Cohen, Jg. 1887, deportiert 1942, Theresienstadt, ermordet 1943","name":"Hermann Cohen","object:city":"Bocholt","object:country":"DE","object:housenumber":"4","object:postcode":"46399","object:street":"Ludgerusstraße","person:date_of_birth":"1887","person:date_of_death":"1943","start_date":"2007-02-07"}},{"type":"node","id":6219552397,"lat":51.8399186,"lon":6.6067761,"tags":{"artist_name":"Gunter Demnig","historic":"memorial","image":"File:Stolperstein Bocholt Ludgerusstraße 4 Max Markus.jpg","material":"brass","material:de":"Messing","memorial":"stolperstein","memorial:addr":"Ludgerusstraße 4","memorial:text":"Hier wohnte, Max Markus, Jg. 1891, deportiert 1941, ermordet 1943 in, Riga","name":"Max Markus","object:city":"Bocholt","object:country":"DE","object:housenumber":"4","object:postcode":"46399","object:street":"Ludgerusstraße","person:date_of_birth":"1891","person:date_of_death":"1943","start_date":"2008-01-28"}},{"type":"node","id":6219552398,"lat":51.8399204,"lon":6.6067782,"tags":{"artist_name":"Gunter Demnig","historic":"memorial","image":"File:Stolperstein Bocholt Ludgerusstraße 4 Amalie Markus.jpg","material":"brass","material:de":"Messing","memorial":"stolperstein","memorial:addr":"Ludgerusstraße 4","memorial:text":"Hier wohnte, Amalie Markus, geb. Meyer, Jg. 1884, vor Deportation, Flucht in den Tod, 16.12.1941","name":"Amalie Markus geb.Meyer","object:city":"Bocholt","object:country":"DE","object:housenumber":"4","object:postcode":"46399","object:street":"Ludgerusstraße","person:date_of_birth":"1884","person:date_of_death":"1943","start_date":"2008-01-28"}},{"type":"node","id":6219552399,"lat":51.8399223,"lon":6.6067781,"tags":{"artist_name":"Gunter Demnig","historic":"memorial","image":"File:Stolperstein Bocholt Ludgerusstraße 4 Leopold Markus.jpg","material":"brass","material:de":"Messing","memorial":"stolperstein","memorial:addr":"Ludgerusstraße 4","memorial:text":"Hier wohnte, Leopold Markus, Jg. 1884, deportiert 1941, ermordet 1943 in, Riga","name":"Leopold Markus","object:city":"Bocholt","object:country":"DE","object:housenumber":"4","object:postcode":"46399","object:street":"Ludgerusstraße","person:date_of_birth":"1884","person:date_of_death":"1943","start_date":"2008-01-28"}},{"type":"node","id":6219686769,"lat":51.8388501,"lon":6.6200298,"tags":{"artist_name":"Gunter Demnig","historic":"memorial","image":"File:Stolperstein Bocholt Ostmauer 3 Aurelia Landau.jpg","material":"brass","material:de":"Messing","memorial":"stolperstein","memorial:addr":"Ostmauer 4","memorial:text":"Hier wohnte, Aurelia Landau, geb.Lorch, Jg. 1902, Flucht 1943 Holland, tot 1943","name":"Aurelia Landau, geb.Lorch","object:city":"Bocholt","object:country":"DE","object:housenumber":"4","object:postcode":"46397","object:street":"Ostmauer","person:date_of_birth":"1902","person:date_of_death":"1943","start_date":"2008-01-28"}},{"type":"node","id":6219686770,"lat":51.8388444,"lon":6.6200326,"tags":{"artist_name":"Gunter Demnig","historic":"memorial","image":"File:Stolperstein Bocholt Ostmauer 3 Ruth Lorch.jpg","material":"brass","material:de":"Messing","memorial":"stolperstein","memorial:addr":"Ostmauer 4","memorial:text":"Hier wohnte,Ruth Lorch, Jg. 1923, deportiert 1942, Izbica, ermordet","name":"Ruth Lorch","object:city":"Bocholt","object:country":"DE","object:housenumber":"4","object:postcode":"46397","object:street":"Ostmauer","person:date_of_birth":"1923","start_date":"2008-01-28"}},{"type":"node","id":6219686771,"lat":51.8383393,"lon":6.6212709,"tags":{"artist_name":"Gunter Demnig","historic":"memorial","image":"File:Stolperstein Bocholt Münsterstraße 4 Josef Fehler.jpg","material":"brass","material:de":"Messing","memorial":"stolperstein","memorial:addr":"Münsterstraße 4","memorial:text":"Hier wohnte, Josef Fehler, Jg. 1893, deportiert 1945, KZ Neuengamme, tot 1945","name":"Josef Fehler","object:city":"Bocholt","object:country":"DE","object:housenumber":"46397","object:street":"Münsterstraße","person:date_of_birth":"1893","person:date_of_death":"1945","start_date":"2007-02-07"}},{"type":"node","id":6219702700,"lat":51.8384071,"lon":6.6189517,"tags":{"artist_name":"Gunter Demnig","historic":"memorial","image":"File:Stolperstein Bocholt Osterstraße 52 Martha Löwenstein.jpg","material":"brass","material:de":"Messing","memorial":"stolperstein","memorial:addr":"Osterstraße 52","memorial:text":"Hier wohnte, Martha Löwenstein, geb. Löwenstein, Jg. 1896, deportiert 1941, Ghetto Riga, ermordet 1942","name":"Martha Löwenstein geb. Löwenstein","object:city":"Bocholt","object:country":"DE","object:housenumber":"42","object:street":"Osterstraße","person:date_of_birth":"1896","person:date_of_death":"1942","start_date":"2008-01-28"}},{"type":"node","id":6219702701,"lat":51.8384098,"lon":6.6189676,"tags":{"artist_name":"Gunter Demnig","historic":"memorial","image":"File:Stolperstein Bocholt Osterstraße 52 Bertold Löwenstein.jpg","material":"brass","material:de":"Messing","memorial":"stolperstein","memorial:addr":"Osterstraße 52","memorial:text":"Hier wohnte, Berthold Löwenstein, Jg. 1882, deportiert 1941, Ghetto Riga, ermordet 1942","name":"Berthold Löwenstein","object:city":"Bocholt","object:country":"DE","object:housenumber":"42","object:street":"Osterstraße","person:date_of_birth":"1882","person:date_of_death":"1942","start_date":"2008-01-28"}},{"type":"node","id":6219723479,"lat":51.8395997,"lon":6.6237297,"tags":{"artist_name":"Gunter Demnig","historic":"memorial","image":"File:Stolperstein Bocholt Schwartzstraße 14 Luise Löwenstein.jpg","material":"brass","material:de":"Messing","memorial":"stolperstein","memorial:addr":"Schwartzstraße 14","memorial:text":"Hier wohnte, Luise Löwenstein, Jg. 1861, deportiert 1942, Ghetto Riga, ermordet 7.9.1942","name":"Luise Löwenstein","object:city":"Bocholt","object:country":"DE","object:housenumber":"14","object:street":"Schwartzstraße","person:date_of_birth":"1861","person:date_of_death":"1942-09-07","start_date":"2009-11-24"}},{"type":"node","id":6724299677,"lat":51.8430454,"lon":6.6180959,"tags":{"historic":"wayside_cross","image":"https://upload.wikimedia.org/wikipedia/commons/4/46/A_part_of_Bocholt_-_panoramio_%287%29.jpg"}},{"type":"node","id":6892197895,"lat":51.8535559,"lon":6.6256871,"tags":{"description":"Gedenkstein für Kinder aus einer \"stillen\" Geburt (tot- und fehlgeborene KInder)","historic":"memorial","image":"https://commons.wikimedia.org/wiki/File:Gedenkstein_totgeborene_Kinder.jpg","inscription":"\"Du kamst und bist leise gegangen - wie ein Schmetterling. In unseren Herzen hast du Spuren hinterlassen.\nDen tot- und fehlgeborenen Kindern\"","material":"stone","memorial":"stone","name":"In Erinnerung an die \"still geborenen\" Kinder","name:de":"Schmetterlingsbaum","start_date":"2023-07-31"}},{"type":"node","id":9460010948,"lat":51.8477721,"lon":6.6159639,"tags":{"access":"yes","historic":"memorial","inscription":"Wir danken unserer Partnerstadt Rossendale für diesen originalen englischen Briefkasten, der uns am 20.10.1984 als Geschenk zur weiteren Nutzung überlassen wurde.","material":"metal","memorial":"sculpture","name":"Briefkasten der Partnerstadt Rossendale"}},{"type":"node","id":9983104974,"lat":51.8345059,"lon":6.6153205,"tags":{"historic":"wayside_cross","tourism":"artwork"}},{"type":"node","id":10008192888,"lat":51.8393629,"lon":6.6150961,"tags":{"artist_name":"Gunter Demnig","historic":"memorial","image":"File:Stolperstein Bocholt Nordstraße 19 Kurt Herzfeld.jpg","material":"brass","material:de":"Messing","memorial":"stolperstein","memorial:addr":"Nordstraße 19","memorial:text":"Hier wohnte, Kurt Herzfeld, Jg. 1913, Flucht 1938 Holland, interniert Westerbork, deportiert Drancy, 1942 Auschwitz, ermordet","name":"Kurt Herzfeld","object:city":"Bocholt","object:country":"DE","object:housenumber":"19","object:postcode":"46399","object:street":"Nordstraße","person:date_of_birth":"1913","start_date":"2019-06-27"}},{"type":"node","id":10008192889,"lat":51.8393637,"lon":6.6150929,"tags":{"artist_name":"Gunter Demnig","historic":"memorial","image":"File:Stolperstein Bocholt Nordstraße 19 Selma Herzfeld.jpg","material":"brass","material:de":"Messing","memorial":"stolperstein","memorial:addr":"Nordstraße 19","memorial:text":"Hier wohnte, Selma Herzfeld, Jg. 1873, Flucht 1938 Holland, versteckt gelebt, befreit, tot 7.5.1945","name":"Selma Herzfeld","object:city":"Bocholt","object:country":"DE","object:housenumber":"19","object:postcode":"46399","object:street":"Nordstraße","person:date_of_birth":"1873","person:date_of_death":"1945-05-07","start_date":"2019-06-27"}},{"type":"node","id":10008192890,"lat":51.8393643,"lon":6.6150973,"tags":{"artist_name":"Gunter Demnig","historic":"memorial","image":"File:Stolperstein Bocholt Nordstraße 19 Walter Stern.jpg","material":"brass","material:de":"Messing","memorial":"stolperstein","memorial:addr":"Nordstraße 19","memorial:text":"Hier wohnte, Walter Stern, Jg. 1926, Flucht 1938 Holland, versteckt gelebt, befreit","name":"Walter Stern","object:city":"Bocholt","object:country":"DE","object:housenumber":"19","object:postcode":"46399","object:street":"Nordstraße","person:date_of_birth":"1926","start_date":"2019-06-27"}},{"type":"node","id":10008192891,"lat":51.8393651,"lon":6.6150943,"tags":{"artist_name":"Gunter Demnig","historic":"memorial","image":"File:Stolperstein Bocholt Nordstraße 19 Moritz Stern.jpg","material":"brass","material:de":"Messing","memorial":"stolperstein","memorial:addr":"Nordstraße 19","memorial:text":"Hier wohnte, Moritz Stern, Jg. 1891, Flucht 1938 Holland, interniert Westerbork, deportiert Drancy, 1942 Auschwitz, ermordet","name":"Moritz Stern","object:city":"Bocholt","object:country":"DE","object:housenumber":"19","object:postcode":"46399","object:street":"Nordstraße","person:date_of_birth":"1891","start_date":"2019-06-27"}},{"type":"node","id":10008192892,"lat":51.8393656,"lon":6.6150919,"tags":{"artist_name":"Gunter Demnig","historic":"memorial","image":"File:Stolperstein Bocholt Nordstraße 19 Hilde Stern-May.jpg","material":"brass","material:de":"Messing","memorial":"stolperstein","memorial:addr":"Nordstraße 19","memorial:text":"Hier wohnte, Hilde Stern-May, geb. Stern, Jg. 1902, Flucht 1938 Holland, versteckt gelebt, befreit","name":"Hilde Stern-May","object:city":"Bocholt","object:country":"DE","object:housenumber":"19","object:postcode":"46399","object:street":"Nordstraße","person:date_of_birth":"1902","start_date":"2019-06-27"}},{"type":"node","id":12433934686,"lat":51.8395516,"lon":6.6173966,"tags":{"historic":"wayside_cross","material":"wood"}},{"type":"node","id":13006699906,"lat":51.8547079,"lon":6.6260708,"tags":{"access":"yes","historic":"wayside_shrine","inscription":"\"Ite ad Joseph\"\n\"Heiliger Joseph, bitte für uns\"","name":"Hl. Josef","religion":"christian"}},{"type":"way","id":91737708,"nodes":[2599011807,2599011538,2599011573,2599011545,2599011506,2599011501,2599011518,2599011532,2599011536,2599011591,2599011633,2599011725,2599011735,2599011771,2599011764,2599011877,2599011807],"tags":{"addr:city":"Bocholt","addr:country":"DE","addr:housenumber":"20","addr:postcode":"46399","addr:street":"Am Efing","building":"yes","historic":"manor","name":"Haus Efing","source":"local knowledge","start_date":"1570"}},{"type":"way","id":93646177,"nodes":[2597805140,2597805160,2597805155,2597805139,2597805133,2597805152,2597805151,2597805132,2597805122,2597805144,2597805143,2597805121,2597805112,2597805137,2597805136,2597805110,2597805100,2597805129,2597805127,2597805098,2597805097,2597805080,2597805083,2597805049,2597805048,2597805050,2597805044,2597805035,2597804943,2597804933,2597804925,2597804890,2597804886,2597804867,2597804872,2597804852,2597804853,2597804877,2597804881,2597804858,2597804861,2597804883,2597804895,2597804868,2597804871,2597804897,2597804899,2597804878,2597804880,2597804901,2597804905,2597804888,2597804893,2597804907,2597804910,2597804898,2597804900,2597804912,2597804920,2597804904,2597804908,2597804923,2597804926,2597804918,2597804921,2597804914,2597804927,2597804931,2597804928,2597804932,2597804936,2597804994,2597805001,2597804975,2597804979,2597805003,2597805012,2597804991,2597804997,2597805017,2597805031,2597805029,2597805034,2597805036,2597805056,2597805060,2597805067,2597805061,2597805079,2597805101,2597805108,2597805088,2597805084,2597805104,2597805105,2597805115,2597805114,2597805141,2597805142,2597805149,2597805148,2597805167,2597805168,2597805180,2597805179,2597805187,2597805190,2597805199,2597805197,2597805192,2597805205,2597805202,2597805195,2597805185,2597805191,2597805186,2597805208,2597805219,2597805221,2597805223,2597805210,2597805207,2597805217,2597805211,2597805206,2597805198,2597805203,2597805172,2597805161,2597805174,2597805164,2597805163,2597805159,2597805154,2597805171,2597805193,2597805189,2597805213,1086636624,1086636943,2597805230,2597805252,2597805258,2597805261,2597805264,2597805263,2597805256,2597805251,2597805254,2597805253,2597805250,2597805247,2597805220,2597805216,2597805200,2597805204,2597805145,2597805140],"tags":{"addr:city":"Bocholt","addr:country":"DE","addr:housenumber":"3","addr:postcode":"46399","addr:street":"St.-Georg-Platz","amenity":"place_of_worship","building":"church","building:architecture":"gothic","denomination":"roman_catholic","diocese":"Bistum Münster","heritage":"8","heritage:operator":"UntereDenkmalbehörde","historic":"church","name":"St. Georg","religion":"christian","source":"Gps nach Katasterkarte","tourism":"attraction","wheelchair":"yes","wikidata":"Q1356525","wikipedia":"de:St. Georg (Bocholt)","year_of_construction":"1415, 1462, 1472...1468"}},{"type":"way","id":124705222,"nodes":[2581614236,2581614174,2581614167,2581614152,2581614215,2581614235,2581614236],"tags":{"addr:city":"Bocholt","addr:country":"DE","addr:housenumber":"11","addr:postcode":"46397","addr:street":"Münsterstraße","building":"yes","description":"Herrenhaus (1792-95) im klassizistischen Stil mit flankierenden Wirtschaftsgebäuden und Sandsteinfiguren Diana, Merkur, Apollo und Aurora des Barockbildhauers Johann Mauritz Gröninger.","historic":"yes","name":"Haus Woord","wikipedia":"de:Haus Woord"}},{"type":"way","id":126136750,"nodes":[2599135493,2599135454,2599135399,2599135235,2599135151,2599135150,2599135148,2599135208,2599135164,2599135215,2599135216,2599135310,2599135376,2599135390,2599135430,2599135409,2599135493],"tags":{"addr:city":"Bocholt","addr:country":"DE","addr:housenumber":"25","addr:postcode":"46399","addr:street":"Am Hambrock","addr:suburb":"Stenern","building":"yes","castle_type":"manor","historic":"castle","name":"Haus Bülling"}},{"type":"way","id":238006955,"nodes":[2597814187,2597814188,2597814199,2597814191,2597814178,2597814162,2597814148,2597814119,2597814127,2597814094,2597814085,2597814062,2597814040,2597814018,2597814014,2597813971,2597813979,2597813955,2597813932,2597813924,2597813904,2597813916,2597813912,2597813900,2597813905,2597813883,2597813896,2597813914,2597813917,2597813939,2597813950,2597813945,2597813967,2597813972,2597813995,2597814023,2597814043,2597814044,2597814086,2597814080,2597814104,2597814124,2597814150,2597814159,2597814186,2597814177,2597814187],"tags":{"building":"school","historic":"yes","name":"Alter Wasserturm","note":"Kaufmännische Schulen des Kreises Borken in Bocholt","source":"survey","wheelchair":"no","wikipedia":"de:Wasserturm Bocholt"}},{"type":"way","id":253915590,"nodes":[2597803488,2597803475,2597803233,2597803229,2597803132,2597803081,2597803106,2597802847,2597802863,2597802784,2597802777,2597802589,2597802590,2597802586,2597802505,2597802509,2597802503,2597802501,2597802403,2597802679,2597802677,2597802678,2597802668,2597802667,2597802664,2597802695,2597802694,2597802697,2597802691,2597802690,2597802689,2598124081,2598124105,2597802878,2597802892,2597802956,2597803100,2597803055,2597803488],"tags":{"addr:city":"Bocholt","addr:country":"DE","addr:housenumber":"3","addr:postcode":"46395","addr:street":"Industriestraße","building":"industrial","historic":"yes"}},{"type":"way","id":307234888,"nodes":[3123282427,3123282428,3123282426,3123282425,3123282427],"tags":{"building":"yes","description":"Mau­er­werks­schorn­stein, in acht­ec­ki­ger Form mit Stahl­- bän­dern auf qua­dratischem Soc­kel. 32 Me­ter ho­hes Relikt der ehemaligen Spinnerei Gebr. Driessen aus dem Jah­re 1857. (Industriedenkmal)","height":"32","historic":"yes","man_made":"chimney","material":"stone","name":"Mauerwerksschornstein","start_date":"1857"}},{"type":"node","id":2599011501,"lat":51.8491423,"lon":6.6035098},{"type":"node","id":2599011506,"lat":51.8491446,"lon":6.6034903},{"type":"node","id":2599011518,"lat":51.8491499,"lon":6.6035328},{"type":"node","id":2599011532,"lat":51.8491549,"lon":6.6035362},{"type":"node","id":2599011536,"lat":51.8491561,"lon":6.6035415},{"type":"node","id":2599011538,"lat":51.8491563,"lon":6.6033955},{"type":"node","id":2599011545,"lat":51.8491588,"lon":6.6034782},{"type":"node","id":2599011573,"lat":51.8491705,"lon":6.6034873},{"type":"node","id":2599011591,"lat":51.8491771,"lon":6.6035294},{"type":"node","id":2599011633,"lat":51.8491893,"lon":6.6036082},{"type":"node","id":2599011725,"lat":51.8492296,"lon":6.6035934},{"type":"node","id":2599011735,"lat":51.8492319,"lon":6.60361},{"type":"node","id":2599011764,"lat":51.8492419,"lon":6.603589},{"type":"node","id":2599011771,"lat":51.8492441,"lon":6.6036046},{"type":"node","id":2599011807,"lat":51.8492586,"lon":6.6033498},{"type":"node","id":2599011877,"lat":51.8492909,"lon":6.603571},{"type":"node","id":3123282425,"lat":51.8355788,"lon":6.6140163},{"type":"node","id":3123282426,"lat":51.8355798,"lon":6.6140983},{"type":"node","id":3123282427,"lat":51.8356257,"lon":6.6140148},{"type":"node","id":3123282428,"lat":51.8356267,"lon":6.6140968},{"type":"node","id":1086636624,"lat":51.8383413,"lon":6.6139996},{"type":"node","id":1086636943,"lat":51.8383516,"lon":6.6139979},{"type":"node","id":2597804852,"lat":51.8380392,"lon":6.6135409},{"type":"node","id":2597804853,"lat":51.8380398,"lon":6.6135571},{"type":"node","id":2597804858,"lat":51.838044,"lon":6.6136152},{"type":"node","id":2597804861,"lat":51.8380451,"lon":6.61363},{"type":"node","id":2597804867,"lat":51.8380491,"lon":6.6135184},{"type":"node","id":2597804868,"lat":51.8380494,"lon":6.6136891},{"type":"node","id":2597804871,"lat":51.8380507,"lon":6.6137074},{"type":"node","id":2597804872,"lat":51.8380513,"lon":6.6135386},{"type":"node","id":2597804877,"lat":51.8380525,"lon":6.6135548},{"type":"node","id":2597804878,"lat":51.8380549,"lon":6.6137656},{"type":"node","id":2597804880,"lat":51.838056,"lon":6.6137827},{"type":"node","id":2597804881,"lat":51.8380567,"lon":6.6136125},{"type":"node","id":2597804883,"lat":51.8380578,"lon":6.6136281},{"type":"node","id":2597804886,"lat":51.8380592,"lon":6.613516},{"type":"node","id":2597804888,"lat":51.8380602,"lon":6.6138419},{"type":"node","id":2597804890,"lat":51.8380605,"lon":6.6135369},{"type":"node","id":2597804893,"lat":51.8380612,"lon":6.613857},{"type":"node","id":2597804895,"lat":51.8380621,"lon":6.6136868},{"type":"node","id":2597804897,"lat":51.8380634,"lon":6.6137049},{"type":"node","id":2597804898,"lat":51.8380664,"lon":6.6139292},{"type":"node","id":2597804899,"lat":51.8380676,"lon":6.6137633},{"type":"node","id":2597804900,"lat":51.8380679,"lon":6.613946},{"type":"node","id":2597804901,"lat":51.8380688,"lon":6.6137798},{"type":"node","id":2597804904,"lat":51.8380729,"lon":6.6140189},{"type":"node","id":2597804905,"lat":51.838073,"lon":6.6138397},{"type":"node","id":2597804907,"lat":51.838074,"lon":6.6138546},{"type":"node","id":2597804908,"lat":51.8380741,"lon":6.6140358},{"type":"node","id":2597804910,"lat":51.8380793,"lon":6.6139267},{"type":"node","id":2597804912,"lat":51.8380805,"lon":6.6139432},{"type":"node","id":2597804914,"lat":51.8380812,"lon":6.6141042},{"type":"node","id":2597804918,"lat":51.838085,"lon":6.614076},{"type":"node","id":2597804920,"lat":51.8380857,"lon":6.6140165},{"type":"node","id":2597804921,"lat":51.8380862,"lon":6.614093},{"type":"node","id":2597804923,"lat":51.8380869,"lon":6.6140334},{"type":"node","id":2597804925,"lat":51.8380897,"lon":6.6135317},{"type":"node","id":2597804926,"lat":51.8380901,"lon":6.6140749},{"type":"node","id":2597804927,"lat":51.8380931,"lon":6.6141161},{"type":"node","id":2597804928,"lat":51.8380937,"lon":6.6142594},{"type":"node","id":2597804931,"lat":51.838102,"lon":6.6142395},{"type":"node","id":2597804932,"lat":51.838102,"lon":6.6142714},{"type":"node","id":2597804933,"lat":51.8381042,"lon":6.613502},{"type":"node","id":2597804936,"lat":51.8381092,"lon":6.614253},{"type":"node","id":2597804943,"lat":51.8381208,"lon":6.6135261},{"type":"node","id":2597804975,"lat":51.8381549,"lon":6.6143031},{"type":"node","id":2597804979,"lat":51.8381566,"lon":6.6143208},{"type":"node","id":2597804991,"lat":51.8381613,"lon":6.6143707},{"type":"node","id":2597804994,"lat":51.8381624,"lon":6.6142439},{"type":"node","id":2597804997,"lat":51.8381658,"lon":6.6143871},{"type":"node","id":2597805001,"lat":51.8381679,"lon":6.6142997},{"type":"node","id":2597805003,"lat":51.8381687,"lon":6.6143176},{"type":"node","id":2597805012,"lat":51.8381732,"lon":6.6143621},{"type":"node","id":2597805017,"lat":51.8381788,"lon":6.6143778},{"type":"node","id":2597805029,"lat":51.8381968,"lon":6.6144282},{"type":"node","id":2597805031,"lat":51.8381995,"lon":6.6144078},{"type":"node","id":2597805034,"lat":51.8382078,"lon":6.614432},{"type":"node","id":2597805035,"lat":51.8382103,"lon":6.6135098},{"type":"node","id":2597805036,"lat":51.8382107,"lon":6.6144096},{"type":"node","id":2597805044,"lat":51.8382239,"lon":6.613483},{"type":"node","id":2597805048,"lat":51.8382283,"lon":6.6134999},{"type":"node","id":2597805049,"lat":51.8382301,"lon":6.6135061},{"type":"node","id":2597805050,"lat":51.8382319,"lon":6.613493},{"type":"node","id":2597805056,"lat":51.8382398,"lon":6.6144063},{"type":"node","id":2597805060,"lat":51.8382469,"lon":6.6144264},{"type":"node","id":2597805061,"lat":51.8382494,"lon":6.6143997},{"type":"node","id":2597805067,"lat":51.8382559,"lon":6.6144181},{"type":"node","id":2597805079,"lat":51.8382682,"lon":6.6143607},{"type":"node","id":2597805080,"lat":51.8382693,"lon":6.6134791},{"type":"node","id":2597805083,"lat":51.8382707,"lon":6.6134988},{"type":"node","id":2597805084,"lat":51.8382708,"lon":6.6143279},{"type":"node","id":2597805088,"lat":51.838272,"lon":6.614345},{"type":"node","id":2597805097,"lat":51.8382797,"lon":6.6134775},{"type":"node","id":2597805098,"lat":51.8382807,"lon":6.6134969},{"type":"node","id":2597805100,"lat":51.8382814,"lon":6.6135129},{"type":"node","id":2597805101,"lat":51.8382815,"lon":6.6143681},{"type":"node","id":2597805104,"lat":51.8382823,"lon":6.6143257},{"type":"node","id":2597805105,"lat":51.8382828,"lon":6.6143302},{"type":"node","id":2597805108,"lat":51.838285,"lon":6.6143522},{"type":"node","id":2597805110,"lat":51.8382853,"lon":6.6135686},{"type":"node","id":2597805112,"lat":51.8382862,"lon":6.6135864},{"type":"node","id":2597805114,"lat":51.8382878,"lon":6.6143247},{"type":"node","id":2597805115,"lat":51.8382881,"lon":6.6143293},{"type":"node","id":2597805121,"lat":51.83829,"lon":6.6136422},{"type":"node","id":2597805122,"lat":51.8382909,"lon":6.6136571},{"type":"node","id":2597805127,"lat":51.8382934,"lon":6.6134946},{"type":"node","id":2597805129,"lat":51.8382945,"lon":6.6135105},{"type":"node","id":2597805132,"lat":51.838295,"lon":6.6137175},{"type":"node","id":2597805133,"lat":51.8382958,"lon":6.6137337},{"type":"node","id":2597805136,"lat":51.838298,"lon":6.6135662},{"type":"node","id":2597805137,"lat":51.8382992,"lon":6.6135841},{"type":"node","id":2597805139,"lat":51.8383,"lon":6.6137949},{"type":"node","id":2597805140,"lat":51.8383008,"lon":6.613811},{"type":"node","id":2597805141,"lat":51.8383014,"lon":6.614322},{"type":"node","id":2597805142,"lat":51.8383019,"lon":6.614327},{"type":"node","id":2597805143,"lat":51.8383028,"lon":6.6136399},{"type":"node","id":2597805144,"lat":51.8383038,"lon":6.6136547},{"type":"node","id":2597805145,"lat":51.838306,"lon":6.6138865},{"type":"node","id":2597805148,"lat":51.8383064,"lon":6.6143211},{"type":"node","id":2597805149,"lat":51.8383068,"lon":6.6143259},{"type":"node","id":2597805151,"lat":51.8383077,"lon":6.6137152},{"type":"node","id":2597805152,"lat":51.8383088,"lon":6.6137313},{"type":"node","id":2597805154,"lat":51.8383119,"lon":6.6140217},{"type":"node","id":2597805155,"lat":51.8383127,"lon":6.6137927},{"type":"node","id":2597805159,"lat":51.8383133,"lon":6.6140416},{"type":"node","id":2597805160,"lat":51.8383138,"lon":6.6138086},{"type":"node","id":2597805161,"lat":51.8383162,"lon":6.6140811},{"type":"node","id":2597805163,"lat":51.8383183,"lon":6.6140407},{"type":"node","id":2597805164,"lat":51.8383193,"lon":6.6140554},{"type":"node","id":2597805167,"lat":51.8383215,"lon":6.6143182},{"type":"node","id":2597805168,"lat":51.8383219,"lon":6.6143235},{"type":"node","id":2597805171,"lat":51.8383235,"lon":6.6140195},{"type":"node","id":2597805172,"lat":51.8383244,"lon":6.6142034},{"type":"node","id":2597805174,"lat":51.838325,"lon":6.6140626},{"type":"node","id":2597805179,"lat":51.8383264,"lon":6.6143179},{"type":"node","id":2597805180,"lat":51.8383265,"lon":6.6143226},{"type":"node","id":2597805185,"lat":51.8383282,"lon":6.6142927},{"type":"node","id":2597805186,"lat":51.8383284,"lon":6.6142846},{"type":"node","id":2597805187,"lat":51.8383284,"lon":6.6143154},{"type":"node","id":2597805189,"lat":51.8383299,"lon":6.6139855},{"type":"node","id":2597805190,"lat":51.8383301,"lon":6.6143187},{"type":"node","id":2597805191,"lat":51.8383306,"lon":6.6142876},{"type":"node","id":2597805192,"lat":51.8383308,"lon":6.614304},{"type":"node","id":2597805193,"lat":51.838331,"lon":6.6140031},{"type":"node","id":2597805195,"lat":51.8383311,"lon":6.6142965},{"type":"node","id":2597805197,"lat":51.8383313,"lon":6.6143107},{"type":"node","id":2597805198,"lat":51.8383318,"lon":6.6142228},{"type":"node","id":2597805199,"lat":51.8383333,"lon":6.6143147},{"type":"node","id":2597805200,"lat":51.8383334,"lon":6.6138648},{"type":"node","id":2597805202,"lat":51.8383343,"lon":6.6142958},{"type":"node","id":2597805203,"lat":51.8383344,"lon":6.6142181},{"type":"node","id":2597805204,"lat":51.8383345,"lon":6.6138814},{"type":"node","id":2597805205,"lat":51.8383349,"lon":6.6143031},{"type":"node","id":2597805206,"lat":51.8383352,"lon":6.6142278},{"type":"node","id":2597805207,"lat":51.8383369,"lon":6.6142351},{"type":"node","id":2597805208,"lat":51.8383369,"lon":6.6142672},{"type":"node","id":2597805210,"lat":51.8383388,"lon":6.6142591},{"type":"node","id":2597805211,"lat":51.8383396,"lon":6.6142227},{"type":"node","id":2597805213,"lat":51.8383402,"lon":6.6139839},{"type":"node","id":2597805216,"lat":51.8383418,"lon":6.6138633},{"type":"node","id":2597805217,"lat":51.8383421,"lon":6.6142303},{"type":"node","id":2597805219,"lat":51.8383427,"lon":6.6142704},{"type":"node","id":2597805220,"lat":51.8383431,"lon":6.6138817},{"type":"node","id":2597805221,"lat":51.8383438,"lon":6.614266},{"type":"node","id":2597805223,"lat":51.8383445,"lon":6.6142623},{"type":"node","id":2597805230,"lat":51.8383503,"lon":6.6139823},{"type":"node","id":2597805247,"lat":51.8383721,"lon":6.6138764},{"type":"node","id":2597805250,"lat":51.8383766,"lon":6.6138646},{"type":"node","id":2597805251,"lat":51.8383794,"lon":6.6138873},{"type":"node","id":2597805252,"lat":51.8383798,"lon":6.6139775},{"type":"node","id":2597805253,"lat":51.8383838,"lon":6.6138634},{"type":"node","id":2597805254,"lat":51.838385,"lon":6.6138719},{"type":"node","id":2597805256,"lat":51.8383856,"lon":6.613966},{"type":"node","id":2597805258,"lat":51.8383877,"lon":6.6139872},{"type":"node","id":2597805261,"lat":51.8383923,"lon":6.6139868},{"type":"node","id":2597805263,"lat":51.838394,"lon":6.6139741},{"type":"node","id":2597805264,"lat":51.8383943,"lon":6.6139866},{"type":"node","id":2597802403,"lat":51.8344052,"lon":6.6234999},{"type":"node","id":2597802501,"lat":51.8345687,"lon":6.6229791},{"type":"node","id":2597802503,"lat":51.8345729,"lon":6.6229824},{"type":"node","id":2597802505,"lat":51.8345749,"lon":6.6229595},{"type":"node","id":2597802509,"lat":51.834579,"lon":6.6229629},{"type":"node","id":2597802586,"lat":51.834697,"lon":6.6225706},{"type":"node","id":2597802589,"lat":51.8347007,"lon":6.622575},{"type":"node","id":2597802590,"lat":51.8347011,"lon":6.622574},{"type":"node","id":2597802664,"lat":51.8348714,"lon":6.6239442},{"type":"node","id":2597802667,"lat":51.8348732,"lon":6.6239386},{"type":"node","id":2597802668,"lat":51.8348738,"lon":6.6239389},{"type":"node","id":2597802677,"lat":51.8348856,"lon":6.6239},{"type":"node","id":2597802678,"lat":51.8348861,"lon":6.6239005},{"type":"node","id":2597802679,"lat":51.834888,"lon":6.6238924},{"type":"node","id":2597802689,"lat":51.8349142,"lon":6.6240259},{"type":"node","id":2597802690,"lat":51.834916,"lon":6.6240204},{"type":"node","id":2597802691,"lat":51.8349165,"lon":6.6240208},{"type":"node","id":2597802694,"lat":51.8349257,"lon":6.6239897},{"type":"node","id":2597802695,"lat":51.8349259,"lon":6.6239886},{"type":"node","id":2597802697,"lat":51.8349262,"lon":6.62399},{"type":"node","id":2597802777,"lat":51.8350658,"lon":6.6228708},{"type":"node","id":2597802784,"lat":51.8350852,"lon":6.6228084},{"type":"node","id":2597802847,"lat":51.8352049,"lon":6.6229568},{"type":"node","id":2597802863,"lat":51.8352207,"lon":6.6229116},{"type":"node","id":2597802878,"lat":51.8352418,"lon":6.6242925},{"type":"node","id":2597802892,"lat":51.8352503,"lon":6.6242946},{"type":"node","id":2597802956,"lat":51.8352766,"lon":6.6242095},{"type":"node","id":2597803055,"lat":51.835363,"lon":6.623724},{"type":"node","id":2597803081,"lat":51.8353824,"lon":6.6231817},{"type":"node","id":2597803100,"lat":51.8353906,"lon":6.6237461},{"type":"node","id":2597803106,"lat":51.8354019,"lon":6.6231207},{"type":"node","id":2597803132,"lat":51.8354123,"lon":6.6232064},{"type":"node","id":2597803229,"lat":51.8354542,"lon":6.6232414},{"type":"node","id":2597803233,"lat":51.8354552,"lon":6.623239},{"type":"node","id":2597803475,"lat":51.835473,"lon":6.6232536},{"type":"node","id":2597803488,"lat":51.8355044,"lon":6.6232799},{"type":"node","id":2598124081,"lat":51.8349484,"lon":6.6240539},{"type":"node","id":2598124105,"lat":51.8349709,"lon":6.6240722},{"type":"node","id":2581614152,"lat":51.8389355,"lon":6.6227609},{"type":"node","id":2581614167,"lat":51.8389596,"lon":6.6224834},{"type":"node","id":2581614174,"lat":51.838963,"lon":6.622484},{"type":"node","id":2581614215,"lat":51.8390287,"lon":6.6227838},{"type":"node","id":2581614235,"lat":51.8390525,"lon":6.6225127},{"type":"node","id":2581614236,"lat":51.8390533,"lon":6.6225032},{"type":"node","id":2597813883,"lat":51.8431339,"lon":6.6138062},{"type":"node","id":2597813896,"lat":51.8431389,"lon":6.6138386},{"type":"node","id":2597813900,"lat":51.8431395,"lon":6.6137895},{"type":"node","id":2597813904,"lat":51.8431401,"lon":6.613744},{"type":"node","id":2597813905,"lat":51.8431402,"lon":6.6138047},{"type":"node","id":2597813912,"lat":51.8431422,"lon":6.6137643},{"type":"node","id":2597813914,"lat":51.8431443,"lon":6.6138353},{"type":"node","id":2597813916,"lat":51.8431456,"lon":6.6137485},{"type":"node","id":2597813917,"lat":51.8431473,"lon":6.6138461},{"type":"node","id":2597813924,"lat":51.8431507,"lon":6.6137158},{"type":"node","id":2597813932,"lat":51.8431557,"lon":6.6137215},{"type":"node","id":2597813939,"lat":51.8431606,"lon":6.6138743},{"type":"node","id":2597813945,"lat":51.843162,"lon":6.6138888},{"type":"node","id":2597813950,"lat":51.8431657,"lon":6.613881},{"type":"node","id":2597813955,"lat":51.8431683,"lon":6.6137019},{"type":"node","id":2597813967,"lat":51.8431794,"lon":6.613906},{"type":"node","id":2597813971,"lat":51.8431822,"lon":6.6136795},{"type":"node","id":2597813972,"lat":51.8431822,"lon":6.6138975},{"type":"node","id":2597813979,"lat":51.8431839,"lon":6.613688},{"type":"node","id":2597813995,"lat":51.843193,"lon":6.6139035},{"type":"node","id":2597814014,"lat":51.8432022,"lon":6.6136716},{"type":"node","id":2597814018,"lat":51.8432032,"lon":6.6136809},{"type":"node","id":2597814023,"lat":51.8432055,"lon":6.6139068},{"type":"node","id":2597814040,"lat":51.8432138,"lon":6.6136805},{"type":"node","id":2597814043,"lat":51.8432168,"lon":6.6139063},{"type":"node","id":2597814044,"lat":51.8432174,"lon":6.6139154},{"type":"node","id":2597814062,"lat":51.8432276,"lon":6.6136842},{"type":"node","id":2597814080,"lat":51.8432356,"lon":6.6138991},{"type":"node","id":2597814085,"lat":51.8432376,"lon":6.6136899},{"type":"node","id":2597814086,"lat":51.8432377,"lon":6.6139077},{"type":"node","id":2597814094,"lat":51.8432405,"lon":6.6136804},{"type":"node","id":2597814104,"lat":51.8432468,"lon":6.6138901},{"type":"node","id":2597814119,"lat":51.8432543,"lon":6.6137056},{"type":"node","id":2597814124,"lat":51.8432565,"lon":6.6138781},{"type":"node","id":2597814127,"lat":51.843258,"lon":6.6136982},{"type":"node","id":2597814148,"lat":51.8432633,"lon":6.6137199},{"type":"node","id":2597814150,"lat":51.8432641,"lon":6.6138655},{"type":"node","id":2597814159,"lat":51.8432688,"lon":6.6138709},{"type":"node","id":2597814162,"lat":51.8432708,"lon":6.6137374},{"type":"node","id":2597814177,"lat":51.8432748,"lon":6.6138386},{"type":"node","id":2597814178,"lat":51.8432751,"lon":6.613752},{"type":"node","id":2597814186,"lat":51.8432795,"lon":6.6138427},{"type":"node","id":2597814187,"lat":51.8432797,"lon":6.6138081},{"type":"node","id":2597814188,"lat":51.8432799,"lon":6.6137821},{"type":"node","id":2597814191,"lat":51.8432811,"lon":6.6137485},{"type":"node","id":2597814199,"lat":51.8432858,"lon":6.6137811},{"type":"node","id":2599135148,"lat":51.8571486,"lon":6.6183272},{"type":"node","id":2599135150,"lat":51.8571514,"lon":6.618322},{"type":"node","id":2599135151,"lat":51.8571524,"lon":6.6183233},{"type":"node","id":2599135164,"lat":51.8571674,"lon":6.6184724},{"type":"node","id":2599135208,"lat":51.8572044,"lon":6.6184041},{"type":"node","id":2599135215,"lat":51.8572106,"lon":6.6185322},{"type":"node","id":2599135216,"lat":51.8572114,"lon":6.6185308},{"type":"node","id":2599135235,"lat":51.8572221,"lon":6.6181951},{"type":"node","id":2599135310,"lat":51.8572821,"lon":6.6186287},{"type":"node","id":2599135376,"lat":51.8573358,"lon":6.6185434},{"type":"node","id":2599135390,"lat":51.8573481,"lon":6.6185636},{"type":"node","id":2599135399,"lat":51.8573549,"lon":6.6183825},{"type":"node","id":2599135409,"lat":51.8573678,"lon":6.6184925},{"type":"node","id":2599135430,"lat":51.8573805,"lon":6.6185132},{"type":"node","id":2599135454,"lat":51.8574063,"lon":6.6183025},{"type":"node","id":2599135493,"lat":51.8574454,"lon":6.6183691}]}}
