{"query_name":"04-places-heritage","query_signature":"315249f6b679f9f2fe4e85ae107dd9276118c5c5","tile_path":"36","payload":{"version":0.6,"generator":"Overpass API 0.7.62.11 87bfad18","osm3s":{"timestamp_osm_base":"2026-07-14T21:29:15Z","copyright":"The data included in this document is from www.openstreetmap.org. The data is made available under ODbL."},"elements":[{"type":"node","id":3746272606,"lat":51.8718733,"lon":6.1596637,"tags":{"historic":"memorial","image":"https://commons.wikimedia.org/wiki/File%3AStolperstein_Emmerich_Elten_Markt_3_Bernhard_Nathan.jpg","memorial":"stolperstein","memorial:addr":"Eltener Markt 3, Elten","memorial:text":"Hier wohnte Bernhard Nathan Jg. 1876 deportiert 1942 Theresienstadt ermordet 1944 in Auschwitz","name":"Bernhard Nathan","network":"Stolpersteine","person:date_of_birth":"1876-05-15","person:date_of_death":"1944","start_date":"2011-04-14","website":"https://www.stolpersteine.eu/"}},{"type":"node","id":3746272607,"lat":51.8718738,"lon":6.1596642,"tags":{"historic":"memorial","image":"https://commons.wikimedia.org/wiki/File%3AStolperstein_Emmerich_Elten_Markt_3_Johanna_Nathan.jpg","memorial":"stolperstein","memorial:addr":"Eltener Markt 3, Elten","memorial:text":"Hier wohnte Johanna Nathan Jg. 1875 deportiert 1942 Theresienstadt ermordet 19.9.1942","name":"Johanna Nathan","network":"Stolpersteine","person:date_of_birth":"1875-03-08","person:date_of_death":"1942-09-19","start_date":"2011-04-14","website":"https://www.stolpersteine.eu/"}},{"type":"node","id":3746272608,"lat":51.8718729,"lon":6.1596634,"tags":{"historic":"memorial","image":"https://commons.wikimedia.org/wiki/File%3AStolperstein_Emmerich_Elten_Markt_3_Julie_Nathan.jpg","memorial":"stolperstein","memorial:addr":"Eltener Markt 3, Elten","memorial:text":"Hier wohnte Julie Nathan Jg. 1879 deportiert 1942 Izbica ermordet 22.3.1942","name":"Julie Nathan","network":"Stolpersteine","person:date_of_birth":"1879-05-03","person:date_of_death":"1942-03-22","start_date":"2011-04-14","website":"https://www.stolpersteine.eu/"}},{"type":"node","id":3746272610,"lat":51.8718742,"lon":6.1596645,"tags":{"historic":"memorial","image":"https://commons.wikimedia.org/wiki/File%3AStolperstein_Emmerich_Elten_Markt_3_Sabina_Nathan.jpg","memorial":"stolperstein","memorial:addr":"Eltener Markt 3, Elten","memorial:text":"Hier wohnte Sabina Nathan Jg. 1872 deportiert 1942 Theresienstadt ermordet 6.7.1944","name":"Sabrina Nathab","network":"Stolpersteine","person:date_of_birth":"1872-02-07","person:date_of_death":"1944-07-06","start_date":"2011-04-14","website":"https://www.stolpersteine.eu/"}},{"type":"node","id":3746272611,"lat":51.8718724,"lon":6.159663,"tags":{"historic":"memorial","image":"https://commons.wikimedia.org/wiki/File%3AStolperstein_Emmerich_Elten_Markt_3_Sophie_Nathan.jpg","memorial":"stolperstein","memorial:addr":"Eltener Markt 3, Elten","memorial:text":"Hier wohnte Sophie Nathan Jg. 1903 deportiert 1942 Trawniki ermordet","name":"Sophie Nathan","network":"Stolpersteine","person:date_of_birth":"1903-08-04","person:date_of_death":"1942","start_date":"2011-04-14","website":"https://www.stolpersteine.eu/"}},{"type":"node","id":5700157407,"lat":51.8841856,"lon":6.1468238,"tags":{"denomination":"catholic","historic":"wayside_shrine","religion":"christian"}},{"type":"node","id":8091694648,"lat":51.8847339,"lon":6.1850905,"tags":{"historic":"archaeological_site","historic:civilization":"modern","historic:period":"WW2","name":"Kochbunker"}},{"type":"node","id":8119157792,"lat":51.8980003,"lon":6.2055515,"tags":{"historic":"archaeological_site","historic:civilization":"modern","historic:period":"WW2","name":"Kochbunker"}},{"type":"node","id":11775179758,"lat":51.8782248,"lon":6.214307,"tags":{"amenity":"place_of_worship","denomination":"roman_catholic","historic":"wayside_chapel","religion":"christian"}},{"type":"way","id":50667152,"nodes":[645154269,645154277,645154273,645154267,645154265,645154253,645154261,645154255,645154262,645154259,645154257,645154264,645154263,645154278,645154271,645154275,645154269],"tags":{"alt_name":"Mühle am Möllenbölt","building":"house","description":"ein spätes gut erhaltenes Beispiel der letzten Entwicklungsstufe der Mühlenarchitektur; steinernen Turmwindmühle mit Rundbogenfenster","heritage":"8","heritage:operator":"UntereDenkmalbehörde","heritage:ref":"24","heritage:ref:gem":"A_00024","heritage:ref:inspire":"DE_05154008_A_00024-001","historic":"building","image":"https://commons.wikimedia.org/wiki/File:Elten.6.p_-_8.jpg","man_made":"windmill","name":"Gerritzens Mühle","old_name":"Windmühle","start_date":"1846","windmill:vanes":"yes"}},{"type":"way","id":668514312,"nodes":[6260389491,6260389492,6260389493,6260389494,6260389491],"tags":{"access":"yes","archaeological_site":"trench","historic":"archaeological_site","historic:civilization":"modern","historic:period":"WW1","name":"Duitse loopgraaf uit de Eerste Wereldoorlog"}},{"type":"node","id":645154253,"lat":51.8735048,"lon":6.1682692},{"type":"node","id":645154255,"lat":51.8735249,"lon":6.1682373},{"type":"node","id":645154257,"lat":51.8735649,"lon":6.1682508},{"type":"node","id":645154259,"lat":51.873553,"lon":6.1682377},{"type":"node","id":645154261,"lat":51.8735129,"lon":6.16825},{"type":"node","id":645154262,"lat":51.873539,"lon":6.168233},{"type":"node","id":645154263,"lat":51.8735754,"lon":6.1682931},{"type":"node","id":645154264,"lat":51.8735727,"lon":6.1682702},{"type":"node","id":645154265,"lat":51.8735019,"lon":6.1682919},{"type":"node","id":645154267,"lat":51.8735046,"lon":6.1683147},{"type":"node","id":645154269,"lat":51.8735383,"lon":6.168352},{"type":"node","id":645154271,"lat":51.8735644,"lon":6.168335},{"type":"node","id":645154273,"lat":51.8735124,"lon":6.1683342},{"type":"node","id":645154275,"lat":51.8735524,"lon":6.1683477},{"type":"node","id":645154277,"lat":51.8735243,"lon":6.1683473},{"type":"node","id":645154278,"lat":51.8735725,"lon":6.1683158},{"type":"node","id":6260389492,"lat":51.8869446,"lon":6.1865059},{"type":"node","id":6260389493,"lat":51.8865512,"lon":6.1849894},{"type":"node","id":6260389494,"lat":51.8863383,"lon":6.1851344},{"type":"node","id":6260389491,"lat":51.8867318,"lon":6.1866508}]}}
