{"query_name":"04-places-heritage","query_signature":"696618d6859137a874093a3c129c3042c07055b6","tile_path":"46","payload":{"version":0.6,"generator":"Overpass API 0.7.62.11 87bfad18","osm3s":{"timestamp_osm_base":"2026-07-14T21:30:14Z","copyright":"The data included in this document is from www.openstreetmap.org. The data is made available under ODbL."},"elements":[{"type":"node","id":36394741,"lat":51.8934561,"lon":6.9840794,"tags":{"historic":"castle","name":"Schloss Velen","wikidata":"Q1319639","wikipedia":"de:Schloss Velen"}},{"type":"node","id":331123352,"lat":51.8752339,"lon":7.0044038,"tags":{"historic":"wayside_shrine","name":"Heilige Maria"}},{"type":"node","id":331124740,"lat":51.8855594,"lon":6.9738393,"tags":{"historic":"wayside_shrine","name":"Heiliger Herz Jesu"}},{"type":"node","id":331124741,"lat":51.890789,"lon":6.9734255,"tags":{"historic":"wayside_shrine","name":"Ecco Homo","religion":"christian"}},{"type":"node","id":331124742,"lat":51.8920491,"lon":7.0073708,"tags":{"historic":"wayside_shrine","name":"Herz Jesu"}},{"type":"node","id":331124743,"lat":51.8925019,"lon":6.9900904,"tags":{"historic":"wayside_shrine","name":"Heiliger Antonius","religion":"christian"}},{"type":"node","id":331124745,"lat":51.8943015,"lon":6.9862017,"tags":{"historic":"wayside_shrine","name":"Christus am Ölberg","religion":"christian"}},{"type":"node","id":331124746,"lat":51.8946374,"lon":6.989206,"tags":{"historic":"wayside_shrine","name":"Mater Dolorosa"}},{"type":"node","id":331124747,"lat":51.8940253,"lon":6.9818235,"tags":{"historic":"wayside_shrine","name":"Heiliger Nepomuk","religion":"christian"}},{"type":"node","id":331124748,"lat":51.89479,"lon":6.972365,"tags":{"historic":"wayside_shrine","name":"Heilige Maria","religion":"christian"}},{"type":"node","id":331124749,"lat":51.9001596,"lon":6.9693991,"tags":{"historic":"wayside_shrine","name":"Steinbild Jesus am Kreuz"}},{"type":"node","id":331124750,"lat":51.899851,"lon":6.9778408,"tags":{"historic":"wayside_cross","material":"stone"}},{"type":"node","id":331124751,"lat":51.8969593,"lon":6.9815629,"tags":{"historic":"wayside_shrine","name":"Heiliger Andreas","religion":"christian"}},{"type":"node","id":331124752,"lat":51.8962733,"lon":6.9834115,"tags":{"historic":"wayside_cross","name":"Heiliger Antonius"}},{"type":"node","id":331124753,"lat":51.8984408,"lon":6.985709,"tags":{"historic":"wayside_cross","name":"Kreuz Friedhof"}},{"type":"node","id":2880083075,"lat":51.8958466,"lon":6.985512,"tags":{"historic":"memorial","memorial":"stone","name":"Gedenkstein Juddenstegge"}},{"type":"node","id":8016967234,"lat":51.893843,"lon":6.9855084,"tags":{"historic":"wayside_shrine","inscription":"Mater dolorosa ora pro nobis","material":"sandstone","name":"Mater dolorosa","religion":"christian"}},{"type":"node","id":8016967235,"lat":51.893702,"lon":6.9855679,"tags":{"historic":"wayside_shrine","material":"sandstone","religion":"christian"}},{"type":"node","id":8016967240,"lat":51.8978077,"lon":7.036009,"tags":{"denomination":"roman_catholic","historic":"wayside_shrine","name":"Madonna","religion":"christian"}},{"type":"node","id":8173554678,"lat":51.8978674,"lon":7.0342081,"tags":{"historic":"memorial","memorial":"plaque","name":"Geschichtsweg Gescher Station O","website":"https://zeitundraumgescher.de/station-o/"}},{"type":"node","id":9859226535,"lat":51.8948675,"lon":6.9827852,"tags":{"historic":"memorial","inscription":"Unseren Gefallenen und Vermissten 1914-1918 1939-1945","material":"brick","memorial":"war_memorial","memorial:conflict":"WW1;WW2"}},{"type":"node","id":9861304518,"lat":51.8998383,"lon":6.9779927,"tags":{"historic":"memorial","inscription":"No wochte eenen Ogenblick sett di dal un röst di lük. Kiek up nao ussen Häergott an`t Krüs watt he för us ledden heff du dann süh`s. Stiftung 2005 vom Heimatfreund Jupp Hövelbrinks","memorial":"stone","start_date":"2005"}},{"type":"way","id":510253185,"nodes":[4992924863,4992924861,4992924899,4992924900,4992924886,4992924889,4992924877,4992924876,4992924869,4992924868,4992924863],"tags":{"building":"yes","disused:craft":"sawmill","historic":"building","start_date":"1890"}},{"type":"node","id":4992924861,"lat":51.8806967,"lon":6.9918749},{"type":"node","id":4992924863,"lat":51.8806995,"lon":6.9919902},{"type":"node","id":4992924868,"lat":51.8807176,"lon":6.991989},{"type":"node","id":4992924869,"lat":51.8807185,"lon":6.9920263},{"type":"node","id":4992924876,"lat":51.880748,"lon":6.9920244},{"type":"node","id":4992924877,"lat":51.880749,"lon":6.9920656},{"type":"node","id":4992924886,"lat":51.8808004,"lon":6.9919858},{"type":"node","id":4992924889,"lat":51.8808022,"lon":6.9920622},{"type":"node","id":4992924899,"lat":51.8808515,"lon":6.991865},{"type":"node","id":4992924900,"lat":51.8808544,"lon":6.9919823}]}}
