{"query_name":"04-places-heritage","query_signature":"a1793130cac14568cd6f5afe8da9e485197f4cd5","tile_path":"7","payload":{"version":0.6,"generator":"Overpass API 0.7.62.11 87bfad18","osm3s":{"timestamp_osm_base":"2026-07-14T21:22:01Z","copyright":"The data included in this document is from www.openstreetmap.org. The data is made available under ODbL."},"elements":[{"type":"node","id":2378206354,"lat":51.8146579,"lon":6.4527037,"tags":{"historic":"memorial","name":"Ehrenmal Heelden"}},{"type":"node","id":3259083458,"lat":51.8093776,"lon":6.3978177,"tags":{"artist_name":"Gunter Demnig","historic":"memorial","image":"File:Stolperstein Rees Millingen Hauptstraße 31 Lina Straus.jpg","inscription":"Hier wohnte, Lina Straus, geb. Moses, Jg. 1856, Flucht 1937 Holland, verhaftet 1942, interniert Westerbork, Tot im Lager","material":"brass","material:de":"Messing","memorial":"stolperstein","memorial:addr":"Hauptstraße 29, Millingen","memorial:text":"Hier wohnte Lina Straus geb. Moses Jg. 1856 Flucht 1937 Holland verhaftet 1942 interniert Westerbork Tot im Lager","name":"Lina Straus geb. Moses","network":"Stolpersteine Rees","object:city":"Rees","object:country":"DE","object:housenumber":"31","object:postcode":"46459","object:street":"Hauptstraße","object:suburb":"Millingen","person:date_of_birth":"1856","start_date":"2009-11-23","wheelchair":"yes"}},{"type":"node","id":4247849467,"lat":51.8093775,"lon":6.3978177,"tags":{"artist_name":"Gunter Demnig","historic":"memorial","image":"File:Stolperstein Rees Millingen Hauptstraße 31 Hermann Straus.jpg","inscription":"Hier wohnte, Hermann Straus, Jg. 1896, deportiert 1941, ermordet in, Auschwitz","material":"brass","material:de":"Messing","memorial":"stolperstein","memorial:addr":"Hauptstraße 29, Millingen","memorial:text":"Hier wohnte Hermann Straus Jg. 1896 deportiert 1941 ermordet in Auschwitz","name":"Hermann Straus","network":"Stolpersteine Rees","object:city":"Rees","object:country":"DE","object:housenumber":"31","object:postcode":"46459","object:street":"Hauptstraße","object:suburb":"Millingen","person:date_of_birth":"1896","start_date":"2009-11-23","wheelchair":"yes"}},{"type":"node","id":4247849469,"lat":51.8093775,"lon":6.3978178,"tags":{"artist_name":"Gunter Demnig","historic":"memorial","image":"File:Stolperstein Rees Millingen Hauptstraße 31 Lena Berets.jpg","inscription":"Hier wohnte, Lena Berets, geb. Straus, Jg. 1898, deportiert 1944, ermordet in, Auschwitz","material":"brass","material:de":"Messing","memorial":"stolperstein","memorial:addr":"Hauptstraße 29, Millingen","memorial:text":"Hier wohnte Lena Berets geb. Straus Jg. 1898 deportiert 1944 ermordet in Auschwitz","name":"Lena Berets geb. Straus","network":"Stolpersteine Rees","object:city":"Rees","object:country":"DE","object:housenumber":"31","object:postcode":"46459","object:street":"Hauptstraße","object:suburb":"Millingen","person:date_of_birth":"1898","start_date":"2009-11-23","wheelchair":"yes"}},{"type":"node","id":4247849471,"lat":51.8093775,"lon":6.3978175,"tags":{"artist_name":"Gunter Demnig","historic":"memorial","image":"File:Stolperstein Rees Millingen Hauptstraße 31 Siegfried Straus.jpg","inscription":"Hier wohnte, Siegfried Straus, Jg. 1900, deportiert 1943, ermordet bei Minsk","material":"brass","material:de":"Messing","memorial":"stolperstein","memorial:addr":"Hauptstraße 29, Millingen","memorial:text":"Hier wohnte Siegfried Straus Jg. 1900 deportiert 1943 ermordet bei Minsk","name":"Siegfried Straus","network":"Stolpersteine Rees","object:city":"Rees","object:country":"DE","object:housenumber":"31","object:postcode":"46459","object:street":"Hauptstraße","object:suburb":"Millingen","person:date_of_birth":"1900","start_date":"2009-11-23","wheelchair":"yes"}},{"type":"node","id":4247849472,"lat":51.8093776,"lon":6.3978176,"tags":{"artist_name":"Gunter Demnig","historic":"memorial","image":"File:Stolperstein Rees Millingen Hauptstraße 31 Sophie Zilversmit.jpg","inscription":"Hier wohnte, Sophie Zilversmil, geb. Straus, Jg. 1896, deportiert 1941, ermordet in, Sobibor","material":"brass","material:de":"Messing","memorial":"stolperstein","memorial:addr":"Hauptstraße 29, Millingen","memorial:text":"Hier wohnte Sophie Zilversmil geb. Straus Jg. 1896 deportiert 1941 ermordet in Sobibor","name":"Sophie Zilversmil geb. Straus","network":"Stolpersteine Rees","object:city":"Rees","object:country":"DE","object:housenumber":"31","object:postcode":"46459","object:street":"Hauptstraße","object:suburb":"Millingen","person:date_of_birth":"1896","start_date":"2009-11-23","wheelchair":"yes"}},{"type":"node","id":4247849473,"lat":51.8093774,"lon":6.3978177,"tags":{"artist_name":"Gunter Demnig","historic":"memorial","image":"File:Stolperstein Rees Millingen Hauptstraße 31 Walter Straus.jpg","inscription":"Hier wohnte, Walter Straus, Jg. 1901, deportiert 1944, ermordet in, Auschwitz","material":"brass","material:de":"Messing","memorial":"stolperstein","memorial:addr":"Hauptstraße 29, Millingen","memorial:text":"Hier wohnte Walter Straus Jg. 1901 deportiert 1944 ermordet in Auschwitz","name":"Walter Straus","network":"Stolpersteine Rees","object:city":"Rees","object:country":"DE","object:housenumber":"31","object:postcode":"46459","object:street":"Hauptstraße","object:suburb":"Millingen","person:date_of_birth":"1901","start_date":"2009-11-23","wheelchair":"yes"}},{"type":"node","id":6609216202,"lat":51.8112676,"lon":6.4018269,"tags":{"historic":"memorial","memorial":"plaque","name":"Gerd R."}},{"type":"node","id":13288662601,"lat":51.8334126,"lon":6.4614969,"tags":{"artist_name":"Günter Denning","historic":"memorial","material":"metal","memorial":"stolperstein","name":"Herbert Sander","note":"Verlegt am 6.11.2025"}},{"type":"node","id":13288662602,"lat":51.8334088,"lon":6.4614969,"tags":{"artist_name":"Günter Denning","historic":"memorial","material":"metal","memorial":"stolperstein","name":"Hertha Sander","note":"Verlegt am 6.11.2025"}},{"type":"node","id":13288662603,"lat":51.8334105,"lon":6.4615023,"tags":{"artist_name":"Günter Denning","historic":"memorial","material":"metal","memorial":"stolperstein","name":"Max Sander","note":"Verlegt am 6.11.2025"}},{"type":"node","id":13288662604,"lat":51.8334109,"lon":6.4614917,"tags":{"artist_name":"Günter Denning","historic":"memorial","material":"metal","memorial":"stolperstein","name":"Walter Sander","note":"Verlegt am 6.11.2025"}},{"type":"node","id":13288662605,"lat":51.8334143,"lon":6.4615024,"tags":{"artist_name":"Günter Denning","historic":"memorial","material":"metal","memorial":"stolperstein","name":"Kurt Sander","note":"Verlegt am 6.11.2025"}},{"type":"way","id":254546418,"nodes":[2603479346,2603479341,2603479335,2603479329,2603479322,2603479317,2603479310,2603479307,2603479301,2603479294,2603479289,2603479281,2603479275,2603479270,2603479262,2603479256,2603479254,2603479255,2603479258,2603479261,2603479268,2603479276,2603479283,2603479290,2603479295,2603479299,2603479308,2603479316,2603479323,2603479331,2603479338,2603479342,2603479346],"tags":{"addr:city":"Isselburg","addr:country":"DE","addr:housenumber":"2","addr:postcode":"46419","addr:street":"Drengfurter Straße","building":"yes","historic":"yes","image":"https://commons.wikimedia.org/wiki/File:Stadtturm_Isselburg.jpg","name":"Stadtturm","source:outline":"ALKIS NRW","tourism":"attraction"}},{"type":"way","id":808556871,"nodes":[7560761122,7560761121,7560761120,7560761119,7560761122],"tags":{"building":"yes","historic":"wayside_shrine","religion":"christian"}},{"type":"node","id":7560761119,"lat":51.8142529,"lon":6.4163786},{"type":"node","id":7560761120,"lat":51.8142347,"lon":6.4163782},{"type":"node","id":7560761121,"lat":51.8142349,"lon":6.4163511},{"type":"node","id":7560761122,"lat":51.8142531,"lon":6.4163514},{"type":"node","id":2603479254,"lat":51.8339389,"lon":6.4639082},{"type":"node","id":2603479255,"lat":51.8339383,"lon":6.463918},{"type":"node","id":2603479256,"lat":51.8339406,"lon":6.4638988},{"type":"node","id":2603479258,"lat":51.833939,"lon":6.4639278},{"type":"node","id":2603479261,"lat":51.8339408,"lon":6.4639372},{"type":"node","id":2603479262,"lat":51.8339434,"lon":6.46389},{"type":"node","id":2603479268,"lat":51.8339437,"lon":6.4639459},{"type":"node","id":2603479270,"lat":51.8339473,"lon":6.4638824},{"type":"node","id":2603479275,"lat":51.833952,"lon":6.4638761},{"type":"node","id":2603479276,"lat":51.8339476,"lon":6.4639534},{"type":"node","id":2603479281,"lat":51.8339573,"lon":6.4638714},{"type":"node","id":2603479283,"lat":51.8339523,"lon":6.4639596},{"type":"node","id":2603479289,"lat":51.8339631,"lon":6.4638684},{"type":"node","id":2603479290,"lat":51.8339577,"lon":6.4639642},{"type":"node","id":2603479294,"lat":51.8339692,"lon":6.4638674},{"type":"node","id":2603479295,"lat":51.8339636,"lon":6.463967},{"type":"node","id":2603479299,"lat":51.8339696,"lon":6.4639679},{"type":"node","id":2603479301,"lat":51.8339752,"lon":6.4638683},{"type":"node","id":2603479307,"lat":51.8339811,"lon":6.4638711},{"type":"node","id":2603479308,"lat":51.8339757,"lon":6.4639668},{"type":"node","id":2603479310,"lat":51.8339864,"lon":6.4638757},{"type":"node","id":2603479316,"lat":51.8339815,"lon":6.4639639},{"type":"node","id":2603479317,"lat":51.8339912,"lon":6.4638818},{"type":"node","id":2603479322,"lat":51.8339951,"lon":6.4638894},{"type":"node","id":2603479323,"lat":51.8339868,"lon":6.4639592},{"type":"node","id":2603479329,"lat":51.833998,"lon":6.4638981},{"type":"node","id":2603479331,"lat":51.8339915,"lon":6.4639529},{"type":"node","id":2603479335,"lat":51.8339998,"lon":6.4639075},{"type":"node","id":2603479338,"lat":51.8339953,"lon":6.4639452},{"type":"node","id":2603479341,"lat":51.8340004,"lon":6.4639173},{"type":"node","id":2603479342,"lat":51.8339982,"lon":6.4639365},{"type":"node","id":2603479346,"lat":51.8339999,"lon":6.4639271}]}}
