{"query_name":"04-places-heritage","query_signature":"9368beceeb43c291c47ebaf8da18ab5122dbd25e","tile_path":"70","payload":{"version":0.6,"generator":"Overpass API 0.7.62.11 87bfad18","osm3s":{"timestamp_osm_base":"2026-07-14T21:36:29Z","copyright":"The data included in this document is from www.openstreetmap.org. The data is made available under ODbL."},"elements":[{"type":"node","id":2152516403,"lat":51.9603928,"lon":6.360782,"tags":{"addr:city":"Doetinchem","addr:housenumber":"6","addr:postcode":"7004JK","addr:street":"Kasteellaan","email":"info@kasteelslangenburg.nl","historic":"castle","name":"Kasteel Slangenburg","phone":"+31 315 298 200","source":"BAG","source:date":"2014-03-24","website":"https://www.kasteelslangenburg.nl/","wikidata":"Q2534458","wikipedia":"nl:Slangenburg"}},{"type":"way","id":269725695,"nodes":[2748625132,2748623238,2748625135,2748625129,2748625132],"tags":{"addr:city":"Doetinchem","addr:housenumber":"8","addr:postcode":"7004HG","addr:street":"Goorstraat","building":"yes","historic":"yes","name":"Voormalige Zondagsschool","ref:bag":"0222100000597921","source":"BAG","source:date":"2019-10-28","start_date":"1910"}},{"type":"node","id":2748623238,"lat":51.9560174,"lon":6.3398512},{"type":"node","id":2748625129,"lat":51.9559478,"lon":6.3398402},{"type":"node","id":2748625132,"lat":51.9559734,"lon":6.3397911},{"type":"node","id":2748625135,"lat":51.9559918,"lon":6.3399003}]}}
