{"query_name":"04-places-heritage","query_signature":"2694b864fbf32e36b6a70cbac5feb825e8c49b7b","tile_path":"94","payload":{"version":0.6,"generator":"Overpass API 0.7.62.11 87bfad18","osm3s":{"timestamp_osm_base":"2026-07-14T21:42:28Z","copyright":"The data included in this document is from www.openstreetmap.org. The data is made available under ODbL."},"elements":[{"type":"node","id":12442328349,"lat":52.0009749,"lon":7.0154806,"tags":{"artist_name":"Hubert Janning","historic":"memorial","material":"stone","memorial":"war_memorial","name":"Kriegerehrenmal Büren (Erzengel Michael)"}},{"type":"way","id":93257632,"nodes":[3374784834,3374784827,3374784908,3374784841,3374784834],"tags":{"alt_name":"Mausescheune","building":"barn","historic":"building","name":"Mäusescheune","website":"https://www.heimatverein-gescher.de/museumshof-auf-dem-braem/muuseschoppe/","wikimedia_commons":"File:Mäusescheune_Gescher.JPG"}},{"type":"way","id":484547112,"nodes":[4772949806,4772949805,4772949804,4772951043,4772949808,4772949803,4772949802,4772949801,4772949806],"tags":{"building":"chapel","historic":"monument","name":"Hengelborgkapelle"}},{"type":"node","id":3374784827,"lat":51.9739443,"lon":6.9636903},{"type":"node","id":3374784834,"lat":51.9739663,"lon":6.9636219},{"type":"node","id":3374784841,"lat":51.9740594,"lon":6.9636993},{"type":"node","id":3374784908,"lat":51.9740374,"lon":6.9637673},{"type":"node","id":4772949801,"lat":51.9809023,"lon":6.9839318},{"type":"node","id":4772949802,"lat":51.9808877,"lon":6.9839909},{"type":"node","id":4772949803,"lat":51.9808729,"lon":6.9839813},{"type":"node","id":4772949804,"lat":51.9808232,"lon":6.9838623},{"type":"node","id":4772949805,"lat":51.9808916,"lon":6.9839069},{"type":"node","id":4772949806,"lat":51.9808878,"lon":6.9839223},{"type":"node","id":4772949808,"lat":51.980869,"lon":6.9839971},{"type":"node","id":4772951043,"lat":51.9808009,"lon":6.9839527}]}}
